"stop_id","stop_code","stop_name","stop_lat","stop_lon","zone_id","stop_url","location_type"
"112514","","Laukaa linja-autoasema","62.4146943734173","25.9521651226176","3","http://410","0"
"115746","","Paavalinvuori","62.1365415478432","25.7017848171263","2","http://500","0"
"142648","","Tervala P","62.2155447537345","25.7151751504026","1","http://179","0"
"142788","","Tihisenvuori I","61.9495339008172","25.3423257888156","4","http://179","0"
"142789","","Kolisevantie L","61.9499766267205","25.3525248107951","4","http://179","0"
"142790","","Kolisevantie I","61.950140894793","25.3538892756409","4","http://179","0"
"142792","","Ramppi Muurame I","62.1390834946774","25.6684360519443","2","http://500","0"
"142793","","Setäläntie P","62.137479098655","25.6737841502965","2","http://500","0"
"142794","","Säynätsalo th I","62.1370787313469","25.6766715773302","2","http://500","0"
"142796","","Kotirannantie I","62.1379986503766","25.6848497742757","2","http://500","0"
"142797","","Paavalinvuori th L","62.1394248732585","25.6942609787521","2","http://500","0"
"142798","","Paavalinvuori th I","62.1397060065007","25.695735849286","2","http://500","0"
"142799","","Vuorenlahdentie E","62.1442065108147","25.704503610229","2","http://500","0"
"142800","","Vuorenlahdentie I","62.1446801513765","25.7066328564809","2","http://179","0"
"142801","","Karkaussaari th P","62.140082710014","25.7249470023566","2","http://179","0"
"142802","","Karkaussaari th I","62.1393535619111","25.7261873849133","2","http://179","0"
"142803","","Kinkovuorentie 124 I","62.1374162136263","25.732338911591","2","http://179","0"
"142804","","Kinkovuori  L","62.1374010627009","25.7337280893124","2","http://179","0"
"142805","","Kinkovuori I","62.1375781368102","25.7361482656713","2","http://179","0"
"142806","","Karkauspohja L","62.1389713900728","25.742202315171","2","http://179","0"
"142807","","Karkauspohja I","62.1391580305833","25.7445649002755","2","http://179","0"
"142808","","Riihelä L","62.138951212497","25.7582732402075","2","http://179","0"
"142809","","Eteläväylä 22 I","62.1905588477364","25.6947568657164","1","http://179","0"
"142810","","Eteläväylä 18 I","62.1900917474849","25.7014532054298","1","http://179","0"
"142811","","Sohlberginkatu L","62.1897702982953","25.706395014044","1","http://179","0"
"142812","","Sohlberginkatu I","62.189615044708","25.7086193476116","1","http://179","0"
"142813","","Keljonkangas L","62.1890975887173","25.7116647039733","1","http://179","0"
"142814","","Keljonkangas  P","62.1880472297545","25.7145241403845","1","http://179","0"
"142815","","Välitie P","62.1871518332688","25.7156209589963","1","http://179","0"
"142816","","Välitie  E","62.1859221240239","25.7171249195046","1","http://179","0"
"142817","","Sääksvuorentie P","62.1834231610281","25.7206324896605","1","http://179","0"
"142818","","Sääksvuorentie E","62.1827486533554","25.7218444802163","1","http://179","0"
"142819","","Sääkslahti P","62.1801490286456","25.7296419351281","1","http://179","0"
"142820","","Sääkslahti E","62.1793419160219","25.7323304459974","1","http://179","0"
"142821","","Tapani E","62.1769695186997","25.7388721859335","1","http://179","0"
"142823","","Tapani P","62.1766590430191","25.7395649864447","1","http://179","0"
"142825","","Ahosenveräjä P","62.1706645612924","25.746159399232","2","http://500","0"
"142826","","Ahosenveräjä E","62.1699810244434","25.7463630844935","2","http://500","0"
"142827","","Kinkomäki P","62.1681170167154","25.7469382829579","2","http://500","0"
"142828","","Kinkomäki E","62.1673111013324","25.7473429741919","2","http://500","0"
"142829","","Olympiakylä E","62.1624071587846","25.7503742190604","2","http://500","0"
"142830","","Olympiakylä P","62.1619112287033","25.7506824039779","2","http://500","0"
"142831","","Kinkomaan sairaala th P","62.1573728276851","25.754338920443","2","http://500","0"
"142832","","Kinkomaan sairaala th E","62.1573081529883","25.7544045594617","2","http://500","0"
"142833","","Kertuntie P","62.1521400526501","25.7536212994531","2","http://500","0"
"142834","","Kertuntie E","62.151424390407","25.753145383139","2","http://500","0"
"142835","","Betonivalimo P","62.147141945333","25.7499874681723","2","http://500","0"
"142836","","Betonivalimo E","62.1468812431611","25.7497451546704","2","http://500","0"
"142837","","Ss-Vuorensyrjä P","62.1433830157546","25.7442975148012","2","http://179","0"
"142838","","Vuorensyrjä E","62.1429155390682","25.743828935917","2","http://179","0"
"142839","","Kinkovuorentie th P","62.1401073675765","25.7426056485017","2","http://179","0"
"142840","","Keskuskuja L","62.1559168713112","25.756048602637","2","http://500","0"
"142841","","Keskuskuja I","62.1554127343128","25.7569556301695","2","http://500","0"
"142842","","Tammitie 2 I","62.2411288278933","25.8132550383514","1","http://179","0"
"142843","","Viherlandia P","62.2339731393044","25.8134531906926","1","http://179","0"
"142844","","Viherlandia E","62.2327901296686","25.8120193631943","1","http://179","0"
"142845","","Äijälä P","62.2317437830018","25.8101168480807","1","http://179","0"
"142846","","Hieta-aho E","62.1668321779684","25.6831974373571","2","http://500","0"
"142847","","Hieta-aho P","62.1677027232109","25.6832663862619","2","http://500","0"
"142848","","Rajahongantie E","62.1747489952183","25.6859916632782","2","http://500","0"
"142849","","Rajahongantie P","62.1754212921237","25.6864162765722","2","http://500","0"
"142850","","Rajarinne E","62.1788192245174","25.6895654448479","1","http://179","0"
"142851","","Rajarinne P","62.1796043542577","25.6909241074084","1","http://179","0"
"142894","","Rusila E","62.1719236263928","25.9905202912996","3","http://179","0"
"142895","","Rusila P","62.1722759237328","25.9898961667706","3","http://179","0"
"142896","","Talsanlampi E","62.1777354640118","25.97856846232","2","http://179","0"
"142897","","Talsanlampi P","62.1792590887918","25.9758946486147","2","http://179","0"
"142898","","Hanhimäentie E","62.183369561227","25.9719384820316","2","http://179","0"
"142899","","Hanhimäentie P","62.1839161916708","25.9713331032673","2","http://179","0"
"142900","","Mäkelänraitti E","62.1877546762541","25.9659888321634","2","http://179","0"
"142901","","Mäkelänraitti P","62.1883463396225","25.9652706860817","2","http://179","0"
"142902","","Siekkiläntie E","62.1923787652175","25.9644269639799","2","http://179","0"
"142903","","Siekkiläntie P","62.1930747953772","25.9647142203289","2","http://179","0"
"142904","","Jokelanvuori E","62.1969690786854","25.9651021826492","2","http://179","0"
"142905","","Jokelanvuori P","62.1975998445303","25.9649849328033","2","http://179","0"
"142906","","Koskelanpolku E","62.2021468498498","25.9664264217171","2","http://179","0"
"142907","","Koskelanpolku P","62.2032616953312","25.9665948536953","2","http://179","0"
"142908","","Orajärvi E","62.2073814431716","25.9670802925757","2","http://179","0"
"142909","","Orajärvi P","62.2080627644465","25.9670792611679","2","http://179","0"
"142910","","Manunsaarentie E","62.2162595073411","25.9688528542066","2","http://179","0"
"142911","","Manunsaarentie P","62.2166324341899","25.9689909319145","2","http://179","0"
"142912","","Pitkäjärventie E","62.2195163007076","25.970187652264","2","http://179","0"
"142913","","Pitkäjärventie P","62.2201882213557","25.9704863533253","2","http://179","0"
"142914","","Lepola E","62.2259987365943","25.9703517856393","2","http://179","0"
"142915","","Lepola P","62.2266168558519","25.9708052108275","2","http://179","0"
"142916","","Muurikaisjärvi E","62.2325275020417","25.9733301706348","2","http://179","0"
"142917","","Muurikaisjärvi P","62.2336667493559","25.9723690022779","2","http://179","0"
"142918","","Leppälahti th E","62.2360633405474","25.9699776545725","2","http://179","0"
"142919","","Leppälahti th P","62.2362035594848","25.9698926729369","2","http://179","0"
"142940","","Murrontie P","62.3694985835641","25.3230393057759","3","http://179","0"
"142941","","Hepoperä E","62.3739657350756","25.3268291646166","3","http://179","0"
"142942","","Hepoperä P","62.3748236462182","25.3275610152344","3","http://179","0"
"142943","","Kaskiaho E","62.3775979220648","25.3299475791984","4","http://179","0"
"142980","","Jussila L","62.3859615059697","25.7044243529789","3","http://179","0"
"142981","","Jussila I","62.3861094773939","25.7031561629716","3","http://179","0"
"142982","","Tikka I","62.386623801257","25.6986323550099","3","http://179","0"
"142983","","Tikka L","62.3867034030218","25.6973088993467","3","http://179","0"
"142984","","Tikkamannilantie I","62.3865504600574","25.6878373828051","3","http://179","0"
"142985","","Tikkamannilantie L","62.3865011763423","25.685760618533","3","http://179","0"
"142986","","Elementtitie I","62.3876506068641","25.6745271548999","3","http://179","0"
"142987","","Elementtitie L","62.3879942989629","25.6724574660883","3","http://179","0"
"142988","","Tikansalontie I","62.3886019121716","25.6674515062301","3","http://179","0"
"142989","","Tikansalontie L","62.3886188907192","25.6651753896886","3","http://179","0"
"142990","","Lennostontie I","62.3883397213961","25.6600768335923","3","http://179","0"
"142991","","Lennostontie L","62.3882423972747","25.658314646285","3","http://179","0"
"142992","","Martinkatu I","62.3881241232382","25.652700706354","3","http://179","0"
"142993","","Mestarinkatu L","62.3881976693628","25.6489534736988","3","http://179","0"
"142994","","Mestarinkatu I","62.3882240316043","25.6468682262911","3","http://179","0"
"142995","","Hakakatu  Tikkakoski L","62.3884786906568","25.6392064264917","3","http://179","0"
"142996","","Hakakatu  Tikkakoski I","62.3884837304335","25.6390719642563","3","http://179","0"
"142997","","Koulukatu  Tikkakoski I","62.3881902918918","25.6277450390942","3","http://179","0"
"142998","","Koulukatu  Tikkakoski L","62.387818898373","25.6254974668201","3","http://179","0"
"142999","","Hytölänpolku I","62.3870120103625","25.618581521383","3","http://179","0"
"143000","","Hytölänpolku L","62.3871345909982","25.6169262451206","3","http://179","0"
"143001","","Tikkakoskentie 526 I","62.3877933793912","25.6072551536109","3","http://179","0"
"143002","","Tikkakoskentie 526 L","62.3875584495436","25.6059826929936","3","http://179","0"
"143003","","Tikkakoskentie 577 I","62.3860027395915","25.5985466750042","3","http://179","0"
"143004","","Tikkakoskentie 577 L","62.3857439531669","25.5972742809536","3","http://179","0"
"143005","","Kuikka I","62.3822597176293","25.5882042905996","3","http://179","0"
"143077","","Pokelantie I","62.4266833584837","25.6954615283454","3","http://410","0"
"143078","","Suonpää L","62.4279335045252","25.7053502851512","3","http://410","0"
"143079","","Suonpää I","62.4280776587669","25.7069417758654","3","http://410","0"
"143080","","Peurunkamäki th L","62.4282519716851","25.729623991602","3","http://410","0"
"143081","","Peurunkamäki th I","62.4280925999313","25.7312318207272","3","http://410","0"
"143082","","Pitkämäentie L","62.4266352841682","25.7459304573173","3","http://410","0"
"143083","","Pitkämäentie I","62.426492004273","25.7473291457638","3","http://410","0"
"143085","","Asontie L","62.4253542465567","25.7710571646358","3","http://410","0"
"143086","","Asontie I","62.4244553120008","25.7732192587057","3","http://410","0"
"143087","","Vehniäntie 710 L","62.4258906157484","25.7916766785509","3","http://410","0"
"143088","","Vehniäntie 710 I","62.425858444129","25.7934336922759","3","http://410","0"
"143089","","Kuusela L","62.4234774775382","25.8081317170936","3","http://410","0"
"143090","","Kuusela I","62.4230082251102","25.8096200101791","3","http://410","0"
"143091","","Vehniäntie 257 L","62.428293990468","25.8662069212318","3","http://410","0"
"143092","","Vehniäntie 257 I","62.4284757973772","25.8686168607313","3","http://410","0"
"143093","","Valkolantie L","62.4289788764895","25.8752118146335","3","http://410","0"
"143094","","Valkolantie I","62.4288423514853","25.8777250340486","3","http://410","0"
"143095","","Lepolantie L","62.4267580898865","25.8933986366474","3","http://410","0"
"143096","","Lepolantie I","62.4262762902234","25.8964845238097","3","http://410","0"
"143097","","Peurunka TH L","62.4252168519559","25.9015330040451","3","http://410","0"
"143098","","Peurunka TH I","62.4243927411485","25.9040375445412","3","http://410","0"
"143099","","Koppelontie L","62.4237507371998","25.9081222549331","3","http://410","0"
"143100","","Koppelontie I","62.4237522402773","25.9103080040668","3","http://410","0"
"143101","","Lievestuore th  P","62.2516710617976","26.1765263093427","3","http://410","0"
"143102","","Suurosentie E","62.2562421014113","26.1824971620206","3","http://410","0"
"143103","","Paavonkuja E","62.2590870813271","26.1883504941796","3","http://410","0"
"143105","","Männikön th L","62.2645441882972","26.2081937104288","3","http://410","0"
"143106","","Männikön th I","62.265080356739","26.2094216569234","3","http://410","0"
"143107","","Tervamäen koulu L","62.2659427959801","26.2114072708085","3","http://410","0"
"143108","","Tervamäen koulu I","62.266386796714","26.2125192471041","3","http://410","0"
"143109","","Raita-ahontie I","62.2686814831758","26.2163398827157","3","http://410","0"
"143110","","Raita-ahontie L","62.2688707460898","26.2165578217386","3","http://410","0"
"143111","","Raitakuja I","62.2704719271519","26.2188793820154","3","http://410","0"
"143112","","Raitakuja L","62.270682443016","26.2193454533186","3","http://410","0"
"143113","","Kukkakuja E","62.2868971687457","26.2429526875742","3","http://410","0"
"143414","","Honkala I","62.1969972205957","25.4268277891127","3","http://179","0"
"143415","","Kalliokylä th L","62.1995062842228","25.4400760871663","3","http://179","0"
"143416","","Patajärventie E","62.1574939744846","25.4767809749009","3","http://179","0"
"143417","","Patajärventie P","62.1580773038859","25.4764612555423","3","http://179","0"
"143418","","Majalanmäki E","62.1633322635388","25.4775730612577","3","http://179","0"
"143419","","Majalanmäki P","62.163992839186","25.4775084685921","3","http://179","0"
"143420","","Rietulantie E","62.1684632778867","25.477039630473","3","http://179","0"
"143421","","Rietulantie P","62.1689841022929","25.4769747773267","3","http://179","0"
"143422","","Sutolantie E","62.1811883677744","25.4731405023044","3","http://179","0"
"143423","","Sutolantie P","62.181438106065","25.4724098928925","3","http://179","0"
"143424","","Saukontie E","62.1838552396012","25.4679476771183","3","http://179","0"
"143425","","Saukontie P","62.1842393659597","25.4680070205799","3","http://179","0"
"143426","","Kuusjärventie E","62.1895717405804","25.4709149825485","3","http://179","0"
"143427","","Ei tiedossa","62.1907707092457","25.4719229286784","3","http://179","0"
"143428","","Ei tiedossa","62.1926987739011","25.4737708611772","3","http://179","0"
"143429","","Ei tiedossa","62.1930375874541","25.4756559589612","3","http://179","0"
"143430","","Myllymäki L","62.1940443159483","25.4887218639763","2","http://500","0"
"143431","","Myllymäki I","62.1941180538615","25.4895871354473","2","http://500","0"
"143432","","Myllyntaus L","62.1940042945043","25.4979639488634","2","http://500","0"
"143433","","Myllyntaus I","62.1938958940086","25.4996846447473","2","http://500","0"
"143434","","Tervakangas L","62.1943604668973","25.5058478714625","2","http://500","0"
"143435","","Tervakangas I","62.1945287854706","25.5068130561497","2","http://500","0"
"143436","","Pitkäkorventie L","62.1958877738993","25.5160325798112","2","http://500","0"
"143437","","Pitkäkorventie I","62.1959612455354","25.5167215258066","2","http://500","0"
"143438","","Saukkolahdentie 793 L","62.1961041519504","25.5266600285142","2","http://500","0"
"143439","","Saukkolahdentie 793 I","62.1961730477134","25.5280812232359","2","http://500","0"
"143440","","Pukkimäentie L","62.1964740371889","25.5343036084672","2","http://500","0"
"143441","","Pukkimäentie I","62.1964969099035","25.5347751193673","2","http://500","0"
"143442","","Isolahti koulu  I","62.1970370925326","25.5523627197608","2","http://500","0"
"143443","","Jaakontie I","62.1932704689139","25.5743605557766","2","http://500","0"
"143444","","Jaakontie L","62.1932039831329","25.5749766222951","2","http://500","0"
"143445","","Ronsu L","62.1927629190278","25.5827128643524","2","http://500","0"
"143446","","Ronsu I","62.1927127939416","25.5830587206769","2","http://500","0"
"143447","","Jokiranta L","62.1915529859962","25.5860702619773","2","http://500","0"
"143448","","Jokiranta I","62.1909302484136","25.5871067454462","2","http://500","0"
"143449","","Isoranta L","62.1905561261362","25.5961424170213","2","http://179","0"
"143450","","Isoranta I","62.1907698996464","25.5968694413738","2","http://179","0"
"143451","","Kitukangas L","62.195030217544","25.606176301181","1","http://179","0"
"143452","","Kitukangas I","62.1954293566236","25.6070534377562","1","http://179","0"
"143453","","Kitumäki I","62.1998977228529","25.6173746242954","1","http://179","0"
"143454","","Kitumäki L","62.2001579030818","25.6179066298733","1","http://179","0"
"143455","","Kotanen I","62.2016849179983","25.6211624132934","1","http://179","0"
"143456","","Kotanen L","62.2019725619628","25.6220443406962","1","http://179","0"
"143457","","TV-masto I","62.2031282347025","25.6366475513843","1","http://179","0"
"143458","","TV-masto L","62.203092499803","25.6378511389301","1","http://179","0"
"143459","","Lähteelä L","62.206830240575","25.6509968895808","1","http://179","0"
"143460","","Lähteelä I","62.2071266636569","25.6522443703614","1","http://179","0"
"143463","","Ylämyllyjärvi L","62.2170224814821","25.6846940731458","1","http://179","0"
"143464","","Ylämyllyjärvi P","62.2181699674774","25.6854284553701","1","http://179","0"
"143465","","Vähä-Vesanka E","62.2611549716128","25.5429787853521","2","http://179","0"
"143466","","Vähä-Vesanka P","62.261386177193","25.5431184607784","2","http://179","0"
"143467","","Kettulanmäki E","62.263730869577","25.5444364897597","2","http://179","0"
"143468","","Kettulanmäki P","62.2640606413261","25.5445839190766","2","http://179","0"
"143469","","Kenraalintie E","62.2663545382989","25.5504426541206","2","http://179","0"
"143470","","Kenraalintie P","62.2661235338405","25.55124901629","2","http://179","0"
"143471","","Pyyppöläntie I","62.1392294199651","25.6669842294047","2","http://500","0"
"143472","","Pyyppöläntie L","62.1390199044552","25.6644148681483","2","http://500","0"
"143473","","Laaksotie I","62.1372542910846","25.6594721515759","2","http://500","0"
"143474","","Laaksotie L","62.1370119337463","25.6579283420969","2","http://500","0"
"143475","","Rantatöyry I","62.1362780527131","25.6510923503387","2","http://500","0"
"143476","","Rantatöyry L","62.1361129692712","25.6493879486344","2","http://500","0"
"143477","","Alhonsaarentie I","62.1333843753326","25.6302143425394","2","http://500","0"
"143478","","Alhonsaarentie L","62.1332460443321","25.6294094627861","2","http://500","0"
"143479","","Huhtiniementie I","62.1447510154505","25.5866247881885","2","http://500","0"
"143480","","Huhtiniementie L","62.1448150732661","25.5854137627679","2","http://500","0"
"143481","","Lietniementie I","62.144852241675","25.5784754215941","2","http://500","0"
"143482","","Lietniementie L","62.1451364934503","25.5772398848925","2","http://500","0"
"143483","","Mehtolanniementie I","62.1459990053168","25.5736181418777","2","http://500","0"
"143484","","Mehtolanniementie L","62.1460515750575","25.5733514537852","2","http://500","0"
"143485","","Hyrtölänlahti E","62.1524226732814","25.5624661279371","2","http://500","0"
"143486","","Hyrtölänlahti P","62.1525374585834","25.5624183600294","2","http://500","0"
"143487","","Hyrtölänniementie E","62.1575738949969","25.5636728832965","2","http://500","0"
"143488","","Hyrtölänniementie P","62.1582403322936","25.564246442921","2","http://500","0"
"143489","","Melleri E","62.1616154333484","25.5678188705424","2","http://500","0"
"143490","","Melleri P","62.1621402311326","25.5685232979278","2","http://500","0"
"143491","","Hokkasentie E","62.1662332542587","25.5710119912163","2","http://500","0"
"143492","","Hokkasentie P","62.1664939452231","25.5708642969756","2","http://500","0"
"143493","","Mellerinsaari th E","62.1694860770896","25.561713991231","2","http://500","0"
"143494","","Mellerinsaari th P","62.1698387134272","25.5605381687744","2","http://500","0"
"143495","","Kalliosaarentie E","62.1707995940541","25.5581343246325","2","http://500","0"
"143496","","Kalliosaarentie P","62.1713352405994","25.5567917903027","2","http://500","0"
"143497","","Polkuluoto E","62.1732281162734","25.5533627642961","2","http://500","0"
"143498","","Polkuluoto P","62.1737651182479","25.5529999456073","2","http://500","0"
"143499","","Polkulanrannantie E","62.1757712629223","25.5538583346042","2","http://500","0"
"143500","","Polkulanrannantie P","62.1761050055769","25.554849331685","2","http://500","0"
"143501","","Uimaranta th P","62.1796197332568","25.5561760372928","2","http://500","0"
"143502","","Uimaranta th E","62.1796796011906","25.5561352374917","2","http://500","0"
"143503","","Isolahti E","62.1822036732046","25.5546147953409","2","http://500","0"
"143504","","Isolahti P","62.182694104174","25.5546365201269","2","http://500","0"
"143505","","Lapinmäentie E","62.1904053254079","25.5567641155612","2","http://500","0"
"143506","","Lapinmäentie P","62.1909755280226","25.5565888025203","2","http://500","0"
"143508","","Saukkolahdentie E","62.1966964730302","25.5515278062816","2","http://500","0"
"143509","","Nokkatie L","62.1030759569515","25.6438861755512","2","http://500","0"
"143510","","Nokkatie I","62.1027722419487","25.6459450242284","2","http://500","0"
"143511","","Yrittäjäntie E","62.1052058894151","25.6514503595688","2","http://500","0"
"143512","","Yrittäjäntie P","62.1057520953812","25.6521097132128","2","http://500","0"
"143513","","Riihivuori th E","62.1115208997578","25.6561088719516","2","http://500","0"
"143514","","Riihivuori th P","62.1129896480081","25.657723355241","2","http://500","0"
"143515","","Saarenkylä E","62.1162637399031","25.6633765628128","2","http://500","0"
"143516","","Saarenkylä P","62.1167095721106","25.6639841169663","2","http://500","0"
"143517","","Kannistontie E","62.1205983617678","25.6652951268902","2","http://500","0"
"143518","","Kannistontie P","62.1211891857641","25.6655574829863","2","http://500","0"
"143519","","Rättälintie E","62.1230193200075","25.6653417802152","2","http://500","0"
"143520","","Rättälintie P","62.1235206092805","25.6654434666512","2","http://500","0"
"143521","","Verkkoniemi th P","62.1287525164794","25.6663010723634","2","http://500","0"
"143522","","Verkkoniemi th E","62.1287857117225","25.6663301911452","2","http://500","0"
"143523","","Virastotie E","62.130266604695","25.6703054979475","2","http://500","0"
"143524","","Virastotie P","62.1307725963616","25.6717899162041","2","http://500","0"
"143525","","Mikkolantie P","62.1333569225728","25.6744273720523","2","http://500","0"
"143526","","Mikkolantie E","62.1337905968944","25.6745785660779","2","http://500","0"
"143528","","Setäläntie E","62.1361511763508","25.6746484320234","2","http://500","0"
"143529","","Hautalanmäki E","62.1396887311679","25.6755843938523","2","http://500","0"
"143530","","Hautalanmäki P","62.1404020055651","25.674881727748","2","http://500","0"
"143531","","Tervamäki E","62.1468679230848","25.6825709701931","2","http://500","0"
"143532","","Tervamäki P","62.1473415421153","25.6830818484255","2","http://500","0"
"143533","","Iso Palojärvi P","62.1536634933458","25.6896449519873","2","http://500","0"
"143534","","Iso Palojärvi E","62.1554316454708","25.6879215540906","2","http://500","0"
"143535","","Puromäki E","62.1606772418372","25.6859885037183","2","http://500","0"
"143536","","Puromäki P","62.1613519798723","25.6858105266725","2","http://500","0"
"143537","","Oksalanmäentie E","62.1632220432566","25.6850093466129","2","http://500","0"
"143538","","Oksalanmäentie P","62.1642502571751","25.6841682371045","2","http://500","0"
"143539","","Koppikylä P","62.1327770175157","25.7608399938503","2","http://179","0"
"143540","","Koppikylä E","62.1327085013261","25.7608836758139","2","http://179","0"
"143541","","Lehtisaari P","62.1298377902181","25.7604544000843","2","http://179","0"
"143542","","Lehtisaari E","62.1291930085572","25.7603205256048","2","http://179","0"
"143543","","Lemmensilta P","62.1279946492469","25.7615323530111","2","http://179","0"
"143544","","Lemmensilta I","62.1272637387072","25.762657533306","2","http://179","0"
"143545","","Satasarvinen L","62.126729446344","25.7670639384895","2","http://179","0"
"143546","","Satasarvinen I","62.1262118749357","25.7682496728865","2","http://179","0"
"143547","","Vuorenlahti L","62.124407906788","25.7748914230208","2","http://179","0"
"143548","","Koulunmäki P","62.124370656012","25.7794964258847","2","http://179","0"
"143549","","Sysmälä E","62.1999899045966","25.7234105199465","1","http://179","0"
"143550","","Sysmälä P","62.2006874685717","25.7237112911216","1","http://179","0"
"143551","","Keljonranta E","62.2043418772597","25.7220960519369","1","http://179","0"
"143552","","Keljonranta P","62.2049760232949","25.7217142676745","1","http://179","0"
"143553","","Valimontie E","62.2095528681356","25.7193421222494","1","http://179","0"
"143554","","Valimontie P","62.2106369661969","25.7197037433387","1","http://179","0"
"143555","","Varastomyymälä L","62.2399892048253","25.8220033760143","1","http://179","0"
"143556","","Varastomyymälä I","62.2401346199906","25.8241673331303","1","http://179","0"
"143557","","Jyskä L","62.2398719933378","25.8297363431315","1","http://179","0"
"143558","","Jyskä I","62.2399713285725","25.8308104428156","1","http://179","0"
"143559","","Pitkäsilta L","62.2404047322367","25.8346118257027","1","http://179","0"
"143560","","Pitkäsilta I","62.2407847385219","25.8378166284411","1","http://179","0"
"143561","","Latostenmäki L","62.2419491200743","25.8442339410066","1","http://179","0"
"143562","","Latostenmäki I","62.2423582228112","25.8464254607034","1","http://179","0"
"143563","","Kotimäki th L","62.24526803439","25.8537483610606","1","http://179","0"
"143564","","Kotimäki th I","62.2456427631781","25.8550793915192","1","http://179","0"
"143565","","Vesmanninmäki L","62.2479972839531","25.8672803589502","1","http://179","0"
"143566","","Vesmanninmäki I","62.2479249603046","25.8672364543821","1","http://179","0"
"143567","","Amiraali E","62.2441275885992","25.8755603054277","1","http://179","0"
"143568","","Kalustetehdas E","62.2413651839806","25.8712175210989","1","http://179","0"
"143569","","Kalustetehdas P","62.2405152031281","25.8710147562102","1","http://179","0"
"143570","","Hutunki P","62.2383561279658","25.8687313324199","1","http://179","0"
"143571","","Hutunki E","62.2378050734142","25.8675116381714","1","http://179","0"
"143572","","Sammallahti P","62.2344619586623","25.861873683635","1","http://179","0"
"143573","","Sammallahti E","62.2338778506473","25.8619092401125","1","http://179","0"
"143574","","Kankarsaarentie P","62.2309527030745","25.8609108170052","1","http://179","0"
"143575","","Kankarsaarentie  E","62.2303827935664","25.8604658190685","1","http://179","0"
"143576","","Suvimäki E","62.2274992678988","25.858622286065","1","http://179","0"
"143577","","Suvimäki P","62.2265807181905","25.857453565022","1","http://179","0"
"143579","","Amiraali P","62.2449678299208","25.8751282530408","1","http://179","0"
"143580","","Haukanmaantie th L","62.1521203098701","25.9096246129536","2","http://179","0"
"143581","","Sikoharju P","62.1512578806407","25.906217481611","2","http://179","0"
"143582","","Multamäentie E","62.1483799852083","25.9018335710296","2","http://179","0"
"143583","","Multamäentie P","62.1483363919935","25.9017702070785","2","http://179","0"
"143584","","Kurkisuontie P","62.1405166148028","25.8844020647151","2","http://179","0"
"143585","","Kurkisuontie E","62.1404576139543","25.8841670968645","2","http://179","0"
"143586","","Keskinen E","62.1385655323323","25.8781945712987","2","http://179","0"
"143587","","Keskinen P","62.1385113591546","25.8780433642925","2","http://179","0"
"143588","","Puroharju P","62.1363842565103","25.8737483942866","2","http://179","0"
"143590","","Oittila L","61.9502047661167","25.7480364749766","4","http://179","0"
"143591","","Synsiä E","61.9467919672895","25.8177222771378","4","http://179","0"
"143592","","Päiväkunta L","61.9944949921962","25.8924850315609","4","http://179","0"
"143607","","Katvelantie E","62.2675972012593","25.5785103712861","2","http://179","0"
"143608","","Katvelantie P","62.2686763655185","25.5778347151245","2","http://179","0"
"143609","","Toinilantie E","62.272084772761","25.5732327200401","2","http://179","0"
"143615","","Vesangantie th  P","62.260620976793","25.6177175136314","1","http://179","0"
"143616","","Vesangantie th E","62.2605526658846","25.6179430461115","1","http://179","0"
"143617","","Timolantie P","62.2589221968051","25.6232924335468","1","http://179","0"
"143618","","Timolantie E","62.2586505749271","25.6240740364377","1","http://179","0"
"143619","","Ruokepuolinen P","62.2564193331299","25.6312504197788","1","http://179","0"
"143620","","Ruokepuolinen E","62.2562887154173","25.6318802141048","1","http://179","0"
"143621","","Kylmäoja P","62.260661951945","25.6011196176572","1","http://179","0"
"143622","","Suomäentie P","62.2651454407653","25.6180458649813","1","http://179","0"
"143623","","Suomäentie E","62.2655500587383","25.6180172825213","1","http://179","0"
"143624","","Porttilantie P","62.2676255202864","25.617872694507","1","http://179","0"
"143625","","Porttilantie E","62.2678677591467","25.6178529963489","1","http://179","0"
"143626","","Soikkalantie P","62.2742972880823","25.6170164408874","1","http://179","0"
"143627","","Soikkalantie E","62.2745872713128","25.6174695165673","1","http://179","0"
"143628","","Kesärannantie L","62.2762719089782","25.6257226316473","1","http://179","0"
"143629","","Kesärannantie I","62.2762229313705","25.6267983838388","1","http://179","0"
"143630","","Majajärvi L","62.2755304431861","25.6355104236609","1","http://179","0"
"143631","","Majajärvi I","62.2756266928478","25.6381206622588","1","http://179","0"
"143632","","Yijälä L","62.2769819137808","25.6457657434421","1","http://179","0"
"143633","","Yijälä I","62.2770093917644","25.6471385732084","1","http://179","0"
"143634","","Koskelantie L","62.2764692901579","25.6586291894691","1","http://179","0"
"143635","","Koskelantie I","62.2763464159703","25.6601462788427","1","http://179","0"
"143636","","Rippalanmäki L","62.2754848536349","25.6780043855305","1","http://179","0"
"143637","","Rippalanmäki I","62.2755003972747","25.6795493133523","1","http://179","0"
"143638","","Syväojankuja L","62.2751200032259","25.6833192360133","1","http://179","0"
"143639","","Syväojankuja I","62.2748957382824","25.6852228576023","1","http://179","0"
"143640","","Laajavuorentie L","62.2763606757994","25.6920115717874","1","http://179","0"
"143641","","Laajavuorentie I","62.277246207558","25.6928109022158","1","http://179","0"
"143642","","Rantaniemeläntie E","62.2835674864356","25.7036196676433","1","http://179","0"
"143643","","Rantaniemeläntie P","62.2839424287548","25.7043721735292","1","http://179","0"
"143644","","Korppumäki E","62.2872738276692","25.7095768895785","1","http://179","0"
"143645","","Korppumäki P","62.2879307831724","25.7111648430992","1","http://179","0"
"143646","","Palokanorsi 838 L","62.2886622387534","25.7134018668056","1","http://179","0"
"143648","","Pappilanjoki silta L","62.2917070981086","25.726893767001","1","http://179","0"
"143649","","Pappilanjoki silta I","62.2921304348923","25.7283032018293","1","http://179","0"
"143650","","Matinmäentie th L","62.2938629587306","25.7337812681555","1","http://179","0"
"143652","","Haukkalantie P","62.2683624372188","25.6934142394113","1","http://179","0"
"143653","","Haukkalanmutka 1","62.2701203030802","25.6926197896948","1","http://179","0"
"143654","","Haukanperäntie P","62.2711601011962","25.6926048676624","1","http://179","0"
"143655","","Laajavuorentie E","62.2763300886079","25.6935494732166","1","http://179","0"
"143656","","Korppumäki I","62.2879589229851","25.7010107466546","1","http://179","0"
"143657","","Korppumäki L","62.2880515401699","25.6996241552867","1","http://179","0"
"143658","","Nuutti I","62.287556305651","25.6937771919194","1","http://179","0"
"143659","","Nuutti L","62.287177353556","25.6918813354891","1","http://179","0"
"143660","","Kaunikkila I","62.2894595497966","25.6752864669687","1","http://179","0"
"143661","","Kaunikkila L","62.2896603317837","25.6746683318412","1","http://179","0"
"143662","","Saarenmaantie 225 E","62.291676964672","25.6668112868855","1","http://179","0"
"143663","","Saarenmaantie 225 P","62.2929312387422","25.6646353147919","1","http://179","0"
"143664","","Pykälistönkuja E","62.2963959154442","25.6590680138394","1","http://179","0"
"143665","","Kaitalahti I","62.2959637138522","25.6455681886829","2","http://179","0"
"143666","","Kaitalahti L","62.2955609680529","25.6438602493363","2","http://179","0"
"143667","","Reijunperä E","62.2979905250838","25.6355579606149","2","http://179","0"
"143668","","Reijunperä P","62.2983280676365","25.6352087838383","2","http://179","0"
"143669","","Kaijanpääntie E","62.3003983632439","25.6334383324654","2","http://179","0"
"143670","","Kaijanpääntie P","62.3009115680906","25.6334807978778","2","http://179","0"
"143671","","Saarenmaantie 536 E","62.304490079349","25.6334239522164","2","http://179","0"
"143672","","Saarenmaantie 536 P","62.3050275788774","25.632576564798","2","http://179","0"
"143673","","Kivelänlammentie E","62.3070456865572","25.6257860115523","2","http://179","0"
"143674","","Kivelänlammentie P","62.307249966886","25.625241289394","2","http://179","0"
"143675","","Kokkomäentie E","62.3111586111781","25.6100369071449","2","http://179","0"
"143676","","Kokkomäentie P","62.3115540528948","25.6097088477769","2","http://179","0"
"143677","","Korpelanperä E","62.3182681158076","25.6036755262251","2","http://179","0"
"143678","","Korpelanperä P","62.3184846628716","25.6034851410915","2","http://179","0"
"143679","","Kärkeläntie E","62.3214193743889","25.6008483687277","2","http://179","0"
"143680","","Kärkeläntie P","62.3217679136178","25.6005308921372","2","http://179","0"
"143681","","Kaakkolampi E","62.3260703915446","25.5966030169627","2","http://179","0"
"143682","","Kaakkolampi P","62.3265391154276","25.596188961972","2","http://179","0"
"143683","","Rajala E","62.3306386526963","25.5924944039732","2","http://179","0"
"143684","","Rajala P","62.3310704272647","25.5921076765583","2","http://179","0"
"143685","","Lintukangas I","62.3105964889192","25.690486510718","2","http://179","0"
"143686","","Lintukangas L","62.3103780091314","25.6884316847287","2","http://179","0"
"143687","","Huuhanmäentie I","62.3090006546729","25.6758988225271","2","http://179","0"
"143688","","Huuhanmäentie L","62.3090297017735","25.6752472839301","2","http://179","0"
"143689","","Myllylänperä I","62.3101741942318","25.66909255919","2","http://179","0"
"143690","","Myllylänperä L","62.3102231620033","25.6687812971127","2","http://179","0"
"143691","","Sarjomäentie I","62.3107348374324","25.6645868895978","2","http://179","0"
"143692","","Sarjomäentie L","62.3107795739937","25.6640931311283","2","http://179","0"
"143693","","Topinkuja I","62.3108270413763","25.6509538265933","2","http://179","0"
"143694","","Topinkuja L","62.3108061745084","25.6505326707106","2","http://179","0"
"143695","","Lähteenlammit L","62.3132841438492","25.6355913429742","2","http://179","0"
"143696","","Lähteenlammit I","62.3134195313426","25.6348603212339","2","http://179","0"
"143697","","Vasaramäki I","62.316793700744","25.6237943358655","2","http://179","0"
"143698","","Vasaramäki L","62.3171411239725","25.6218945589439","2","http://179","0"
"143699","","Puuppolantie E","62.3068565962841","25.697484256499","1","http://179","0"
"143700","","Terttumäki E","62.3038233994211","25.6970484602204","1","http://179","0"
"143701","","Terttumäki P","62.3031112389096","25.6984874603444","1","http://179","0"
"143702","","Tarmola E","62.3011557873217","25.7012669779735","1","http://179","0"
"143703","","Tarmola P","62.3009902438517","25.7015267441582","1","http://179","0"
"143704","","Kirri E","62.2978287956717","25.7120732467789","1","http://179","0"
"143705","","Kirri P","62.2969032320657","25.7144965411779","1","http://179","0"
"143706","","Haukkamäki P","62.2920637622417","25.7163814340493","1","http://179","0"
"143707","","Haukkamäki E","62.2918114336409","25.7163277492311","1","http://179","0"
"143708","","Palokanorsi P","62.2900260589908","25.7150782412417","1","http://179","0"
"143709","","Palokankeskus E","62.2874664148623","25.7158741690393","1","http://179","0"
"143710","","Palokankeskus P","62.2875326323666","25.7157473431387","1","http://179","0"
"143711","","Hakatalot P","62.2852151755648","25.719460562497","1","http://179","0"
"143712","","Hakatalot E","62.2849195950978","25.7196277380387","1","http://179","0"
"143713","","Viihdekeskus P","62.2832796810154","25.7205714085538","1","http://179","0"
"143714","","Viihdekeskus E","62.2826509410241","25.7212664565525","1","http://179","0"
"143717","","Mannila P","62.2706825221499","25.7249394282339","1","http://179","0"
"143718","","Mannila E","62.2699561960095","25.7249699193495","1","http://179","0"
"143719","","Pirttisuo I","62.337363277426","25.5851648583126","2","http://179","0"
"143720","","Pirttisuo L","62.3376207252633","25.5835658587119","2","http://179","0"
"143721","","Vertaalantie 57 I","62.3386404044082","25.5772295182727","2","http://179","0"
"143722","","Vertaalantie 57 L","62.3389034623901","25.5756298863729","2","http://179","0"
"143723","","Kätkänmäki I","62.3410973857951","25.5623087247676","2","http://179","0"
"143724","","Kätkänmäki L","62.34117711613","25.5617967620023","2","http://179","0"
"143725","","Tyyneläntie I","62.341940386631","25.5485544572216","2","http://179","0"
"143726","","Tyyneläntie L","62.3419632489457","25.5470851554221","2","http://179","0"
"143727","","Varrenvesi I","62.3431385442368","25.536045714176","3","http://179","0"
"143728","","Vasaraisentie L","62.3444621678764","25.5238794234237","3","http://179","0"
"143729","","Vasaraisentie I","62.3444626562928","25.5233581808744","3","http://179","0"
"143730","","Myllylänkuja I","62.3440473588996","25.514680553091","3","http://179","0"
"143731","","Myllylänkuja L","62.3438605612404","25.5143998356624","3","http://179","0"
"143732","","Pitkänahonmäki I","62.3410220631618","25.5100156930842","3","http://179","0"
"143733","","Pitkänahonmäki L","62.3408271284868","25.5095645566364","3","http://179","0"
"143734","","Vertaalantie th I","62.339191708002","25.4974928137565","3","http://179","0"
"143735","","Nyrölä P","62.3546293699451","25.4725483581911","3","http://179","0"
"143736","","Jatkola E","62.3650608989591","25.482882805792","3","http://179","0"
"143737","","Naarantie E","62.3947854447625","25.6138279539419","3","http://179","0"
"143738","","Naarantie P","62.3949788488827","25.6130725653019","3","http://179","0"
"143739","","Parolantie P","62.397076857503","25.6075646817265","3","http://179","0"
"143740","","Parolantie E","62.3970241857439","25.6076367541683","3","http://179","0"
"143741","","Länsiranta E","62.3999620350429","25.6036999719775","3","http://179","0"
"143742","","Koulukatu  Tikkakoski P","62.3885530474339","25.6263721825642","3","http://179","0"
"143743","","Kiilakatu L","62.3910915432263","25.630884502185","3","http://179","0"
"143744","","Kiilakatu I","62.391603817058","25.6328799421948","3","http://179","0"
"143745","","Tikkakoski koulu L","62.3928858257737","25.637773802053","3","http://179","0"
"143746","","Tikkakoski koulu I","62.3935254080542","25.6394158873036","3","http://179","0"
"143747","","Myllykatu I","62.3949879639425","25.6485292685446","3","http://179","0"
"143748","","Kirkkokatu  Tikkakoski L","62.3953602960909","25.6506044806076","3","http://179","0"
"143749","","Lennostontie P","62.3889663141458","25.6590879283049","3","http://179","0"
"143750","","Tikantie P","62.3634437998842","25.6604877003211","3","http://179","0"
"143751","","Autiosillantie P","62.3671875982273","25.6608483993396","3","http://179","0"
"143752","","Autiosillantie E","62.36781007017","25.6612124220364","3","http://179","0"
"143753","","Autiokangas E","62.3704947893515","25.663073463043","3","http://179","0"
"143754","","Autiokangas P","62.3708483389331","25.6637252616455","3","http://179","0"
"143755","","Tuomolantie E","62.3752320485409","25.671787651492","3","http://179","0"
"143756","","Tuomolantie P","62.3757733810639","25.6725478267328","3","http://179","0"
"143757","","Mutkaperä E","62.3794789261444","25.6738811145504","3","http://179","0"
"143758","","Mutkaperä P","62.3800758197199","25.6735520520182","3","http://179","0"
"143759","","Liinalampi E","62.3820753069626","25.6746162276529","3","http://179","0"
"143760","","Liinalampi P","62.3827136420978","25.6755614988106","3","http://179","0"
"143761","","Tervaruukinkatu E","62.3855129810771","25.6783483569353","3","http://179","0"
"143762","","Tervaruukinkatu P","62.3857573372784","25.6787091330786","3","http://179","0"
"143763","","Rässälä I","62.3485384508699","25.7064369000603","2","http://179","0"
"143765","","Salmelantie 66 I","62.3504810230582","25.7117044539855","2","http://179","0"
"143766","","Koivuharju I","62.3523373856711","25.7199399537216","2","http://179","0"
"143767","","Vähäjärventie P","62.3535567788633","25.7280479525923","2","http://179","0"
"143768","","Vähäjärventie L","62.3540522003685","25.7277933088464","2","http://179","0"
"143769","","Kuusela E","62.3580380210175","25.7304500073415","2","http://179","0"
"143770","","Kuusela P","62.3581950256759","25.7306052926424","2","http://179","0"
"143771","","Koivurinne L","62.3621011654039","25.7456641740185","2","http://179","0"
"143772","","Koivurinne I","62.3621805711251","25.7460137625851","2","http://179","0"
"143773","","Hiekkapohjantie L","62.3644328227233","25.7527202899843","2","http://179","0"
"143774","","Jylhä E","62.3727345003928","25.7503878440415","3","http://179","0"
"143775","","Jylhä I","62.3728297699483","25.7507189876208","3","http://179","0"
"143776","","Kuukanpää I","62.3757546976438","25.7585901168416","3","http://179","0"
"143777","","Kuukanpää L","62.3759584992889","25.7591089329815","3","http://179","0"
"143778","","Ukonniementie P","62.2717049960768","25.7721281371143","1","http://179","0"
"143779","","Heinälammentie P","62.274990546654","25.7668018563172","1","http://179","0"
"143780","","Heinälammentie E","62.2750993168883","25.7661539216619","1","http://179","0"
"143781","","Heinäoja P","62.2767868478118","25.7606772020769","1","http://179","0"
"143782","","Heinäoja E","62.2768833142856","25.7604081436451","1","http://179","0"
"143783","","Ritoniemi E","62.2787811438371","25.7553019833111","1","http://179","0"
"143784","","Ritoniemi P","62.2794395823859","25.754023709796","1","http://179","0"
"143785","","Ritopohja E","62.2815046753539","25.7507272032034","1","http://179","0"
"143786","","Ritopohja P","62.2820221444449","25.750186201356","1","http://179","0"
"143787","","Palokan terveyskeskus P","62.2869553736442","25.7447429570253","1","http://179","0"
"143788","","Palokan terveyskeskus E","62.2880713509985","25.7428926416292","1","http://179","0"
"143789","","Pappilanvuori P","62.2899783330329","25.7400273221091","1","http://179","0"
"143790","","Pappilanrinne E","62.2916118906111","25.7381405211951","1","http://179","0"
"143791","","Jokela th E","62.2939693024471","25.7354864584451","1","http://179","0"
"143792","","Jokela th P","62.2953143579608","25.7342038922668","1","http://179","0"
"143793","","Piilola E","62.2970976794418","25.7306542625775","1","http://179","0"
"143794","","Piilola P","62.2973169111331","25.7302137987794","1","http://179","0"
"143795","","Ollila th E","62.2995847949368","25.7274338498288","1","http://179","0"
"143796","","Ollila th P","62.3006715743524","25.7260846466995","1","http://179","0"
"143797","","Martikaisentie P","62.3049033567785","25.7255693144369","1","http://179","0"
"143798","","Martikaisentie E","62.3051367054526","25.7255716742177","1","http://179","0"
"143799","","Heikkilä E","62.3077841087352","25.7252279845622","1","http://179","0"
"143800","","Heikkilä P","62.3085369144706","25.7255847605821","1","http://179","0"
"143801","","Koivumutka E","62.3106139812434","25.7269766929532","1","http://179","0"
"143802","","Koivumutka P","62.31131915947","25.7274674960657","1","http://179","0"
"143803","","Hiekkapohjan th E","62.3140707374106","25.7320047551675","2","http://179","0"
"143804","","Hiekkapohjan th P","62.315097724276","25.7333735343755","2","http://179","0"
"143805","","Isolahti E","62.3204389351676","25.7344579137199","2","http://179","0"
"143806","","Isolahti P","62.321101788964","25.7343859014698","2","http://179","0"
"143807","","Syvälahdentie E","62.3240189449062","25.7323113751409","2","http://179","0"
"143808","","Syvälahdentie P","62.3249126564631","25.731406307252","2","http://179","0"
"143809","","Lehtoniemi th E","62.3264552407949","25.7298560432255","2","http://179","0"
"143810","","Lehtoniemi th P","62.3266813612025","25.7299453604515","2","http://179","0"
"143811","","Huittilantie E","62.3299270538249","25.7271172210879","2","http://179","0"
"143812","","Huittilantie P","62.3305655875022","25.7264385892992","2","http://179","0"
"143813","","Kappeliahontie E","62.3352389212177","25.7222708310949","2","http://179","0"
"143814","","Kappeliahontie L","62.335849193849","25.7216658900169","2","http://179","0"
"143815","","Matinmäentie 555 I","62.3378324785177","25.7149398312936","2","http://179","0"
"143816","","Matinmäentie 555 L","62.3378716319781","25.7142717982411","2","http://179","0"
"143817","","Lehesjärventie I","62.3390414562657","25.7091191203817","2","http://179","0"
"143818","","Hannosentie L","62.3395917417571","25.7072582048415","2","http://179","0"
"143819","","Hiekkapohjantie 13 I","62.314803019671","25.7356118930269","2","http://179","0"
"143820","","Väliläntie L","62.315671092813","25.7410026520429","2","http://179","0"
"143821","","Väliläntie I","62.3157361107109","25.7414207138849","2","http://179","0"
"143822","","Karhulammentie L","62.3165292000635","25.7459257177397","2","http://179","0"
"143823","","Karhulammentie I","62.3167911559555","25.7467506115633","2","http://179","0"
"143824","","Saarenmäentie I","62.3179972691624","25.749200913005","2","http://179","0"
"143825","","Saarenmäentie L","62.3182048645318","25.7495089898469","2","http://179","0"
"143826","","Mutapohja L","62.3201564506641","25.7525481245996","2","http://179","0"
"143827","","Mutapohja I","62.3204228326145","25.753141980492","2","http://179","0"
"143828","","Karhunrinta L","62.3224856287739","25.7593646831796","2","http://179","0"
"143829","","Karhunrinta I","62.3226007345477","25.7597298575036","2","http://179","0"
"143830","","Hiekkapohjantie 240 L","62.3268114248249","25.7690406241883","2","http://179","0"
"143831","","Hiekkapohjantie 242 P","62.3270281732009","25.7693066534629","2","http://179","0"
"143832","","Perälamminmäki  E","62.3294833884971","25.7723430545988","2","http://179","0"
"143833","","Perälamminmäki P","62.3297941824404","25.7727224898736","2","http://179","0"
"143834","","Perälä E","62.3322927362727","25.7758155011595","2","http://179","0"
"143836","","Osmolantie E","62.3423658904566","25.7745883523584","2","http://179","0"
"143837","","Osmolantie P","62.3426012786499","25.7743149100633","2","http://179","0"
"143838","","Vähäjärventie E","62.3470391609041","25.7729225817348","2","http://179","0"
"143839","","Vähäjärventie P","62.3473518922293","25.7729435032508","2","http://179","0"
"143840","","Katvela E","62.3545502786573","25.763062551931","2","http://179","0"
"143841","","Katvela P","62.354874262282","25.7623749522755","2","http://179","0"
"143842","","Koivurinne E","62.3596132652428","25.7567069684287","2","http://179","0"
"143844","","Salmela E","62.3641060127572","25.7538508942098","2","http://179","0"
"143845","","Salmela P","62.3645560922743","25.7535367528439","2","http://179","0"
"143846","","Vaajakosken th P","62.3294180240983","25.8710659445757","2","http://410","0"
"143847","","Vaajakosken th E","62.3300027135644","25.8716012763443","2","http://410","0"
"143848","","Laviantie E","62.337220412007","25.8774297394518","2","http://410","0"
"143849","","Laviantie P","62.3377510699038","25.8783401767367","2","http://410","0"
"143850","","Ala-Kuukkalantie E","62.3432730101089","25.8835125965375","2","http://410","0"
"143852","","ALa-Kuukkalantie I","62.3435119916484","25.8842526150734","2","http://410","0"
"143853","","Ilveslahti L","62.3425166084386","25.8966911798824","2","http://410","0"
"143854","","Ilveslahti I","62.3420099097798","25.8976306201925","2","http://410","0"
"143855","","Kuusikkotie L","62.3444318206666","25.9141343058277","2","http://410","0"
"143856","","Kuusikkotie I","62.3444230161948","25.9150391946848","2","http://410","0"
"143857","","Saviontie I","62.3474530628205","25.926976701325","3","http://410","0"
"143858","","Saviontie L","62.3478571446593","25.9283785535956","3","http://410","0"
"143859","","Lapinlampi P","62.327473609521","26.0029247755178","3","http://410","0"
"143860","","Rantakylä E","62.374558067359","26.0640960650225","3","http://410","0"
"143861","","Simunankoskentie E","62.3786171228568","26.0642011258033","3","http://410","0"
"143862","","Mansikkaniemi P","62.3561594388553","25.9338013507454","3","http://410","0"
"143863","","Niemelä P","62.3613860587494","25.9351998996019","3","http://410","0"
"143864","","Niemelä E","62.3616584944584","25.9356053649108","3","http://410","0"
"143865","","Kuhankoski E","62.368203835345","25.9399006905147","3","http://410","0"
"143866","","Kuhankoski P","62.3685479648593","25.9400135453508","3","http://410","0"
"143867","","Bovallius-ammattiopisto E","62.3732762848926","25.9393724029705","3","http://410","0"
"143868","","Bovallius-ammattiopisto P","62.3737530656866","25.9396824911285","3","http://410","0"
"143869","","Puustelli E","62.3782138733587","25.9379804133885","3","http://410","0"
"143870","","Kuhanpuro P","62.3790103820805","25.9382224807055","3","http://410","0"
"143871","","Harhalantie E","62.3819149244778","25.9399337454133","3","http://410","0"
"143872","","Harhalantie P","62.3822686614262","25.9405777515243","3","http://410","0"
"143873","","Tarvaala th E","62.3871241691647","25.9395646376221","3","http://410","0"
"143874","","Tarvaala th P","62.3890790276542","25.9399336293498","3","http://410","0"
"143875","","Kantola P","62.3942674830096","25.945557470266","3","http://410","0"
"143876","","Kantola E","62.3944141723606","25.945639630212","3","http://410","0"
"143878","","Tyvelänniemi P","62.4042023667743","25.9476287954863","3","http://410","0"
"143879","","Mikkolanniemi E","62.4082894472317","25.9525530001824","3","http://410","0"
"143881","","Tarvaala th I","62.3881493890979","25.9416975775879","3","http://410","0"
"143883","","Kuhankoskentie L","62.3878727644333","25.955459543105","3","http://410","0"
"143884","","Kuhankoskentie I","62.3878132719131","25.9568450635496","3","http://410","0"
"143885","","Näppymäentie L","62.3860117483044","25.9683083769957","3","http://410","0"
"143886","","Näppymäentie I","62.3857703870306","25.9696013319864","3","http://410","0"
"143887","","Kelkkamäki I","62.2513532866291","26.148023643433","3","http://410","0"
"143888","","Kelkkamäki L","62.2517950345677","26.1493133697027","3","http://410","0"
"143889","","Asevarikko I","62.2540983156942","26.1608024716692","3","http://410","0"
"143890","","Asevarikko L","62.2540868661388","26.1593411352864","3","http://410","0"
"143891","","Pekanraitti I","62.2570293630305","26.1795985825556","3","http://410","0"
"143893","","Liepeentie E","62.2898996428057","26.2452264754038","3","http://410","0"
"143894","","Montolantie E","62.3042980382141","26.2295610613249","3","http://410","0"
"143895","","Tiilitehtaantie E","62.3157794241922","26.2123862426137","3","http://410","0"
"143896","","Lamminpääntie E","62.3241785919169","26.197483344303","3","http://410","0"
"143897","","Haalatvantie E","62.3516888510941","26.1704223423311","3","http://410","0"
"143899","","Hoho P","62.2390481583511","26.2638225921649","3","http://410","0"
"143900","","Kuopiontie E","62.2515242083611","26.2135140797818","3","http://410","0"
"143901","","Hohontie 3 P","62.2623167525077","26.2058666935862","3","http://410","0"
"143902","","Haukkavuorentie E","62.2585667917858","26.2117837057646","3","http://410","0"
"143903","","Haukkavuorentie P","62.257902173718","26.2117336279113","3","http://410","0"
"143904","","Kuopiontie P","62.2524095789911","26.2131330784266","3","http://410","0"
"143905","","Parkonniemi E","62.4400538798781","25.8485195991088","3","http://410","0"
"143906","","Parkonniemi P","62.4401692003145","25.8477496695753","3","http://410","0"
"143907","","Rauhalanmäki E","62.4527665824372","25.8153462144119","3","http://410","0"
"143908","","Sulkulantie E","62.4552359087619","25.8095803990542","3","http://410","0"
"143909","","VALKOLA (LAUKAA)","62.466845917126","25.8117417175234","3","http://410","0"
"143910","","Vitkalantie E","62.4696176350392","25.8095470533992","3","http://410","0"
"143911","","Kaipionpohja P","62.4996831600151","25.7933611072717","3","http://410","0"
"143912","","Kaipiontie E","62.5051132352932","25.7949129773279","3","http://410","0"
"143913","","Vatia I","62.5097398631995","25.8864420219224","4","http://410","0"
"143914","","Korkeakoski P","62.4970702349095","26.0217107324616","4","http://410","0"
"143915","","Haapasuontie P","62.5159296679636","25.950909278074","4","http://410","0"
"143916","","Mannunlahti P","62.4619258502052","26.0685323445872","4","http://410","0"
"160339","","Kolkkapolku","62.1269705145828","25.6458865424998","2","http://500","0"
"161148","","Jaakkola","62.1234364253329","25.6821557462299","2","http://500","0"
"161150","","Sipiläntie","62.1305674655431","25.6761449215055","2","http://500","0"
"171300","","Sulkulantie E","62.2277431546898","25.804088426343","1","http://179","0"
"171301","","Sulkulantie P","62.2270784656046","25.8037282219009","1","http://179","0"
"171302","","Kolmisoppinen L","62.2092158160487","25.6661814275298","1","http://179","0"
"171303","","Kolmisoppinen 1","62.2095028311208","25.6678190875146","1","http://179","0"
"171304","","Sarvikallio E","62.2758479533192","25.7265141147239","1","http://179","0"
"171305","","Sarvikallio P","62.2750322466064","25.7262925508391","1","http://179","0"
"171306","","Lintukangas E","62.3088340734296","25.712815910807","1","http://179","0"
"171307","","Lintukangas P","62.3094513174983","25.7130000089724","1","http://179","0"
"171308","","Kirrintie P","62.3027812751279","25.7097957621095","1","http://179","0"
"171421","","Korpilahdentie L","62.0159838601369","25.5494989611808","3","http://179","0"
"171422","","Korpilahdentie I","62.016858093354","25.5514925544379","3","http://179","0"
"171423","","Punamäki th P","62.0628081776023","25.5977914173083","3","http://179","0"
"171599","","Lentoasema th L","62.4069670996661","25.690113389367","3","http://410","0"
"171600","","Rajamäki E","62.408430655975","25.9440048226935","3","http://410","0"
"171601","","Kukkakuja P","62.2874592455795","26.2435696402282","3","http://410","0"
"171712","","Punamäki E","62.076152952509","25.60924195195","3","http://179","0"
"171713","","Punamäki P","62.077265664883","25.6098672746323","3","http://500","0"
"171714","","Kuusanmäentie E","62.0947846188622","25.6277941450485","2","http://500","0"
"171715","","Kuusanmäentie P","62.0971298455777","25.6314909687289","2","http://500","0"
"184427","","Polkulantie P","62.360643409408","25.8410547413188","2","http://179","0"
"184428","","Polkulantie E","62.3614105341883","25.8396651931959","2","http://179","0"
"184429","","Kuukanpääntie 714 L","62.3670819065099","25.818503114455","3","http://179","0"
"184430","","Riuttamäentie I","62.3740278747185","25.7708296048356","3","http://179","0"
"184431","","Riuttamäentie P","62.3750897504578","25.7696507692928","3","http://179","0"
"186632","","Jyväskylä Matkakeskus","62.2426427829218","25.7553772784589","1","http://179","0"
"187858","","Eerolantie P","62.3362157105622","25.8591521469521","2","http://410","0"
"187859","","Eerolantie I","62.3369337739768","25.8569821826593","2","http://410","0"
"188466","","Kanavuori 9-tie I","62.2284279577701","25.9065367971119","2","http://179","0"
"188468","","Kanavuori 9-tie L","62.2284851063962","25.9088811503722","2","http://179","0"
"188469","","Ruokosaari L","62.2340797873186","25.9284011397103","2","http://179","0"
"188470","","Ruokosaari I","62.2343841510016","25.9305720883263","2","http://179","0"
"189513","","Sarvenperäntie L","62.2662271723154","25.4446489938757","2","http://179","0"
"189514","","Lehtiniemi I","62.2553508158804","25.6237323733203","1","http://179","0"
"189583","","Ronsuntaipaleentie L","62.2294826738884","25.6950617223749","1","http://179","0"
"189584","","Tervala E","62.2145005453143","25.7154853724346","1","http://179","0"
"189629","","Erkintie P","62.1745566852683","25.7423418540249","2","http://500","0"
"189630","","Erkintie E","62.1736852196479","25.7433809485665","2","http://500","0"
"189645","","Suurosentie I","62.2568582762257","26.183985608068","3","http://410","0"
"189646","","Poranmäki L","62.2724061660771","26.2273690252492","3","http://410","0"
"189647","","Poranmäki P","62.2726488241347","26.228149317445","3","http://410","0"
"189988","","Kuusjärventie P","62.1903103731626","25.471568826273","3","http://179","0"
"189989","","Kuusimäentie E","62.1924496706589","25.4733426225909","3","http://179","0"
"189990","","Kuusimäentie I","62.1929779323292","25.475078787625","3","http://179","0"
"189991","","Kenraalintie P","62.2661628501808","25.5511188733979","2","http://179","0"
"189992","","Sikoharju E","62.151221719701","25.9060870742962","2","http://179","0"
"190001","","Kelkkamäki th E","62.2458706829293","26.1340973952353","3","http://410","0"
"190002","","Toinilantie P","62.2728835319817","25.5720509304085","2","http://179","0"
"190003","","Koskelanmutka L","62.2769830023045","25.6537766145707","1","http://179","0"
"190004","","Koskelanmutka I","62.2769515759723","25.6540775396078","1","http://179","0"
"190005","","Palokanorsi 838 I","62.2893537410827","25.7164614633109","1","http://179","0"
"190006","","Jokelantie L","62.2908671179201","25.7242034655682","1","http://179","0"
"190007","","Haukkalantie E","62.2673148262352","25.6942895481708","1","http://179","0"
"190008","","Pykälistönkuja P","62.2961756073868","25.6599020001304","1","http://179","0"
"190009","","Ei tiedossa","62.3262575925735","25.5964415753828","2","http://179","0"
"190012","","Varrenvesi L","62.3433690498758","25.5355961733446","3","http://179","0"
"190014","","Kirkkokatu  Tikkakoski I","62.3956092029275","25.6520982745944","3","http://179","0"
"190015","","Makkarajoentie I","62.3436559473091","25.6990558275218","2","http://179","0"
"190016","","Rässälä L","62.3488551968625","25.7066521154557","2","http://179","0"
"190017","","Salmelantie 83 L","62.3516591304339","25.7133079196967","2","http://179","0"
"190018","","Koivuharju L","62.3523667701748","25.7183822776982","2","http://179","0"
"190019","","Pappilanrinne P","62.2919223263824","25.7376578606771","1","http://179","0"
"190020","","Lehesjärventie L","62.3393988391236","25.7082094649464","2","http://179","0"
"190021","","Perälä P","62.3324008226688","25.775950252279","2","http://179","0"
"190022","","Hiekkapohja P","62.3374774857447","25.7784734383388","2","http://179","0"
"190023","","Koivurinne P","62.3590725782326","25.7570475541855","2","http://179","0"
"190024","","Vehmaanraitti I","62.3730998981201","26.1646224803345","3","http://410","0"
"190025","","Hytösenkuja P","62.4005033195295","25.9440474665536","3","http://410","0"
"190026","","Tyvelänniemi E","62.4040925922145","25.9472348842127","3","http://410","0"
"190027","","Mikkolanniemi P","62.4087228716983","25.9526589258928","3","http://410","0"
"190028","","Kelkkamäki th P","62.2472359846133","26.1345378907211","3","http://410","0"
"190029","","Pirtinalue L","62.2556290694578","26.1686267257082","3","http://410","0"
"190030","","Pirtinalue I","62.2558316586589","26.170023954308","3","http://410","0"
"190031","","Pekanraitti L","62.2569299522132","26.1822965166703","3","http://410","0"
"190032","","Liepeentie P","62.2898282061296","26.2452405439141","3","http://410","0"
"190117","","Puuppolan kauppa E","62.3410711287543","25.6790098780302","2","http://179","0"
"190118","","Puuppolan kauppa P","62.3415326143741","25.6788654246218","2","http://179","0"
"190119","","Suontaustantie E","62.3529578616237","25.6755039928886","2","http://179","0"
"190120","","Hytölänpolku P","62.379701274614","25.6001886864071","3","http://179","0"
"190121","","Hytölänpolku E","62.3799072139879","25.5981589283769","3","http://179","0"
"190124","","Lohitalot P","62.2577076242282","25.7570613131656","1","http://179","0"
"190125","","Lohitalot E","62.2580997476708","25.7572884271037","1","http://179","0"
"190126","","Lahjaharjun hautausmaa E","62.2630684168762","25.7657935603865","1","http://179","0"
"190127","","Lahjaharjun hautausmaa P","62.263501896027","25.7670431288592","1","http://179","0"
"190128","","Seppälän th E","62.2668348367495","25.7772655217592","1","http://179","0"
"190129","","Seppälän th P","62.2672830868749","25.7786223345191","1","http://179","0"
"190130","","Sorastajantie E","62.2706386322207","25.787140269143","1","http://179","0"
"190131","","Sorastajantie P","62.2712766174814","25.7884598644794","1","http://179","0"
"190132","","Kuormaajantie P","62.2941427665144","25.8125500579384","1","http://179","0"
"190133","","Tiituspohja th I","62.306794450949","25.8329005217837","2","http://410","0"
"190134","","Rinnekuja E","62.3160259913571","25.849127293234","2","http://410","0"
"190135","","Rinnekuja P","62.3169521269952","25.8497872899693","2","http://410","0"
"190136","","Pekkalantie E","62.3520948969169","25.8777123005716","2","http://410","0"
"190137","","Vuojärvi P","62.4130956031145","25.9499217278233","3","http://410","0"
"190138","","Vaajakoskentie 267 E","62.3110677757579","25.8702367690906","2","http://410","0"
"190139","","Vaajakoskentie 266 P","62.3115986027979","25.8697167091559","2","http://410","0"
"190140","","Isojoki L","62.1283646435431","25.9386426083504","3","http://179","0"
"190141","","Isojoki I","62.1283922582785","25.9378226246088","3","http://179","0"
"190327","","Palokan ympyrä P","62.2897241649724","25.7228067753063","1","http://179","0"
"190328","","Palokanorsi ramppi E","62.2907293923713","25.7175514476781","1","http://179","0"
"190329","","Kirri ramppi P","62.3021037881428","25.7111312473657","1","http://179","0"
"190330","","Kirri ramppi I","62.3026071523621","25.7120272510761","1","http://179","0"
"190332","","Tarhamäki P","62.2206803689291","25.7155800566143","1","http://179","0"
"190333","","Tarhamäki E","62.2209873994743","25.7167127805325","1","http://179","0"
"190334","","Säynätsalo th P","62.1906857976411","25.701224912592","1","http://179","0"
"190421","","Säynätsalo th E","62.1890490073504","25.6943036878848","1","http://179","0"
"190424","","Ramppi Muurame P","62.1392843628676","25.6720393572281","2","http://500","0"
"190425","","Ysitien ramppi E","62.1384756889637","25.6678769817314","2","http://500","0"
"190426","","Korkeakoskenlahti L","62.2258880795872","25.7295257071385","1","http://179","0"
"190439","","Muuramenlampi P","62.1355650684219","25.6691992746817","2","http://500","0"
"190440","","Muuramenlampi E","62.1361149780828","25.6693611526192","2","http://500","0"
"190441","","Talvimäentie L","62.2496265512809","26.0585365499022","3","http://410","0"
"190442","","Mikkelintie L","62.2497475940889","26.1740274955674","3","http://410","0"
"191032","","Taipaleenharju P","61.977054712773","25.6845865779343","4","http://179","0"
"191033","","Taipaleenharju E","61.9763494667335","25.6852526386873","4","http://179","0"
"191034","","Mäntykankaan hautausmaa E","62.2753682619519","25.7944706476764","1","http://179","0"
"191035","","Mäntykankaan hautausmaa P","62.2759741029443","25.795365438417","1","http://179","0"
"191036","","Laastitie E","62.2795810461658","25.8006644325817","1","http://179","0"
"191037","","Laastitie P","62.2801282102328","25.8014830440264","1","http://179","0"
"191038","","Valio E","62.2836339078354","25.8066471490128","1","http://179","0"
"191039","","Valio P","62.2843703150157","25.8076982113802","1","http://179","0"
"191040","","Palokangas P","62.2858131971103","25.8098198908419","1","http://179","0"
"191041","","Palokangas E","62.2862903798779","25.8104846644199","1","http://179","0"
"191042","","Yritystie 20 E","62.2898306689252","25.8148246815377","1","http://179","0"
"191043","","Yritystie 20 P","62.2905711884711","25.8149674988912","1","http://179","0"
"191044","","Kuormaajantie E","62.2921983776471","25.8140697587044","1","http://179","0"
"191366","","Mutilankuja I","62.0158505242085","25.5522333451425","3","http://179","0"
"191367","","Teletie E","62.0188649589346","25.5712557780735","3","http://179","0"
"191368","","Teletie P","62.0198034888893","25.5719932370324","3","http://179","0"
"191512","","Petäjävesi th L","62.0219696197198","25.5745890278551","3","http://179","0"
"191513","","Teollisuustie E","62.1042240626104","25.6409501145286","2","http://500","0"
"200319","","Laukaantie 2","62.409316691563","25.9531285149648","3","http://410","0"
"200320","","Satamatie 2","62.4120451454333","25.9579259503834","3","http://410","0"
"200321","","Satamatie 1","62.4118923236257","25.9578741778095","3","http://410","0"
"200325","","Ei tiedossa","62.4230823054835","25.9233982010219","3","http://410","0"
"200327","","Harjutie th 2","62.4319037360521","25.9059349940102","3","http://410","0"
"200328","","Peurunka jäähalli","62.4342210161153","25.9011030958563","3","http://410","0"
"200329","","Peurunka Kuntoutuskeskus 2","62.4349890762191","25.8987225597572","3","http://410","0"
"200330","","Peurunka Kuntoutuskeskus 1","62.4336344551333","25.8979789946232","3","http://410","0"
"200331","","Harjutie th 1","62.431836983875","25.9066694190649","3","http://410","0"
"200341","","Ei tiedossa","62.37836901133","25.9378460127587","3","http://410","0"
"200349","","Vihtavuoren kappeli 2","62.3673838293259","25.9017303758924","3","http://410","0"
"200350","","Vihtavuoren kappeli 1","62.3679638331998","25.9021634404878","3","http://410","0"
"200351","","Vihtavuorenkoulu E","62.3711664629031","25.9023596031395","3","http://410","0"
"200352","","Vihtavuoren koulu 11","62.3710736273239","25.9027864874833","3","http://410","0"
"200353","","Vihtavuorenkoulu P","62.3710556877264","25.9027857916833","3","http://410","0"
"200354","","Niittytie th 2","62.3747449737422","25.9028191495458","3","http://410","0"
"200355","","Niittytie th 1","62.3746169944073","25.9028244483594","3","http://410","0"
"200375","","Ei tiedossa","62.4088039321344","25.9443958414612","3","http://410","0"
"200394","","Ei tiedossa","62.3101639954126","25.8445324579002","2","http://410","0"
"200398","","Ei tiedossa","62.3302273359632","25.8619343519657","2","http://410","0"
"200404","","Ei tiedossa","62.3735440248931","25.8920664284073","3","http://410","0"
"200410","","Ei tiedossa","62.408987330633","25.9461868747554","3","http://410","0"
"200411","","Korpelantie 1","62.3311437604991","25.8546769172131","2","http://410","0"
"200412","","Korpelantie 2","62.331550255277","25.8531750284914","2","http://410","0"
"200413","","Halttusentie 1","62.3328754389691","25.8419744204075","2","http://410","0"
"200414","","Halttusentie 2","62.3329263592594","25.8423632346701","2","http://410","0"
"200415","","Laitisentie 1","62.3299306508677","25.838812434428","2","http://410","0"
"200416","","Laitisentie 2","62.3296768206156","25.8387956460859","2","http://410","0"
"200417","","Tiituspohjan koulu 1","62.3269273136624","25.8386900642889","2","http://410","0"
"200418","","Tiituspohjan koulu 2","62.3266722023517","25.838733296962","2","http://410","0"
"200419","","Niittytie 1","62.3238590344534","25.8411419082205","2","http://410","0"
"200420","","Niittytie 2","62.3237723820538","25.8412420016269","2","http://410","0"
"200421","","Laurintie 1","62.3191372008294","25.8443391421644","2","http://410","0"
"200422","","Laurintie 2","62.3194754093312","25.8444176074114","2","http://410","0"
"200423","","Toivontie 1","62.316732370983","25.8460496007817","2","http://410","0"
"200424","","Toivontie 2","62.3169074659517","25.8458293620465","2","http://410","0"
"200425","","Pieleslehdontie 1","62.3150268114086","25.8463757000671","2","http://410","0"
"200426","","Pieleslehdontie 2","62.315194702997","25.8466789328327","2","http://410","0"
"200427","","Mestarintie 1","62.3108614646149","25.8416421274009","2","http://410","0"
"200428","","Mestarintie 2","62.3104977851125","25.8410624401485","2","http://410","0"
"200429","","Tiituspohjan TH 22","62.308866977738","25.8338753001335","2","http://410","0"
"200478","","Ei tiedossa","62.2706116309304","26.2191515305172","3","http://410","0"
"200487","","Ei tiedossa","62.2583076433876","26.2116320971009","3","http://410","0"
"200489","","Lievestuore","62.2616035562708","26.1980045785319","3","http://410","0"
"200490","","Ei tiedossa","62.2593430570737","26.1883373926565","3","http://410","0"
"200501","","Ei nimeä","62.2515425850502","26.148427695121","3","http://410","0"
"205567","","Peltolantie","62.1276942970325","25.6589889761474","2","http://500","0"
"205568","","Haravatie","62.1256743389244","25.6557304480295","2","http://500","0"
"205569","","Hakatie","62.1255951296311","25.6499362423376","2","http://500","0"
"205570","","Alapaulantie","62.1283234216428","25.646476648064","2","http://500","0"
"205571","","Kohopolku","62.1281310651418","25.6511678679152","2","http://500","0"
"205572","","Kulmapolku","62.1287545008567","25.6570473167777","2","http://500","0"
"205573","","Muonamiehentie 2","62.1258114330043","25.6712303221349","2","http://500","0"
"205574","","Emännäntie 2","62.1250391264398","25.6757602878137","2","http://500","0"
"205575","","Emännäntie 1","62.1250653104722","25.6755758862712","2","http://500","0"
"205576","","Muonamiehentie 1","62.1259028356649","25.6708280280529","2","http://500","0"
"205577","","Nuorisoseurantalo","62.1321290313731","25.6759645253074","2","http://500","0"
"205578","","Virastotalo  Muurame","62.1291784805745","25.674883231907","2","http://500","0"
"207342","","Arela 1","62.2724866374002","25.7915287055901","1","http://179","0"
"207343","","Haukkala","62.2730323933281","25.697087694422","1","http://179","0"
"207344","","Kaarikuja","62.2033190874886","25.7533712503117","1","http://179","0"
"207345","","Kissankello 1","62.2148718502558","25.7566073096599","1","http://179","0"
"207346","","Kokkokuja 1","62.206418579588","25.7550336646993","1","http://179","0"
"207347","","Kulottajantie","62.2765265351758","25.8115600580892","1","http://179","0"
"207348","","Lahjaharju 1","62.2704979730947","25.7703201082914","1","http://179","0"
"207349","","Lehdokintie 1","62.2095187864741","25.7528421966721","1","http://179","0"
"207350","","Paloniemi 1","62.2638191271683","25.751461399796","1","http://179","0"
"207351","","Patotie 2","62.2220998411299","25.701100910467","1","http://179","0"
"207352","","Petäjävedentie 1","62.2293570638905","25.6958908431223","1","http://179","0"
"207353","","Salokatu 2","62.2370567953067","25.6944773126389","1","http://179","0"
"207354","","Seitikintie 1","62.2339543903599","25.6767867770387","1","http://179","0"
"207355","","Ss-Hannala 1","62.1430022602354","25.7621901138966","2","http://179","0"
"207357","","Tuulimyllyntie 1","62.2219998778034","25.6981800336464","1","http://179","0"
"207358","","Valkovuokontie 1","62.2122055225808","25.7531311385387","1","http://179","0"
"207359","","Vesojantie 1","62.274064081058","25.8077219430127","1","http://179","0"
"207362","","Ainola 1","62.2289324752565","25.7598095695841","1","http://179","0"
"207363","","Muurarintie 1","62.2259347998759","25.7613147915743","1","http://179","0"
"207364","","Cygnaeuksen koulu 2","62.2398330546473","25.7276816361322","1","http://179","0"
"207365","","Hauhontie 1","62.2101982702227","25.7676096691407","1","http://179","0"
"207366","","Hirvirinne 1","62.2067295616976","25.7776219309867","1","http://179","0"
"207367","","Jäähalli 2","62.2374906143345","25.7202028225976","1","http://179","0"
"207368","","Koivuranta 1","62.2412644043991","25.8038890360006","1","http://179","0"
"207369","","Köhniönjärvi 2","62.2403652473316","25.6785277808485","1","http://179","0"
"207370","","Könkkölä 1","62.2491095594086","25.6547533410066","1","http://179","0"
"207371","","Masonmutka 1","62.2140128439192","25.7706381225059","1","http://179","0"
"207372","","Sairaala 1","62.2672396420677","25.8013525209686","1","http://179","0"
"207373","","Savela 1","62.2424003856763","25.7141890084599","1","http://179","0"
"207374","","Seppäläntie 1","62.2525094580477","25.774181355594","1","http://179","0"
"207375","","Sepänkatu 1","62.2491763682036","25.7370479264078","1","http://179","0"
"207376","","Sorvi 2","62.1921802023115","25.7147193240253","1","http://179","0"
"207377","","Ss-Kangastie 1","62.145421678203","25.769611412353","2","http://179","0"
"207378","","Ss-Kunnantalo 1","62.1410981373678","25.7703547851831","2","http://179","0"
"207379","","Sulkuranta 1","62.2263685331565","25.7886696635319","1","http://179","0"
"207380","","Sääksmäentie 1","62.2064270666784","25.7730574964428","1","http://179","0"
"207381","","Tarhamäki 1","62.2214744408885","25.7187546740446","1","http://179","0"
"207382","","Valimo 1","62.2333256465808","25.721308710543","1","http://179","0"
"207383","","Huhtasuo 1","62.2638958466794","25.7978787873706","1","http://179","0"
"207384","","Isokatu 1","62.2219520674478","25.7922339407432","1","http://179","0"
"207385","","Kaislikkotie 1","62.2759371451711","25.7690129099835","1","http://179","0"
"207386","","Karhunrinne 1","62.2438365218492","25.8129554998026","1","http://179","0"
"207387","","Keljonkankaan koulu 2","62.1951360314381","25.7169960178769","1","http://179","0"
"207388","","Keltinsilta 1","62.2245362508839","25.6934284773832","1","http://179","0"
"207389","","Kemian laitos 1","62.2287398282544","25.7402799212684","1","http://179","0"
"207390","","Kontiontie 1","62.2445749128505","25.8053408192962","1","http://179","0"
"207391","","Kortemäki","62.2497534160165","25.6900656221937","1","http://179","0"
"207392","","Kunnantalo 2","62.2529620376819","25.7498168265788","1","http://179","0"
"207393","","Kuokkala 1","62.2270820293736","25.7729676729584","1","http://179","0"
"207394","","Kuokkala 11","62.2271510582837","25.7729618678836","1","http://179","0"
"207395","","Kuokkala 2","62.2269419486665","25.7729768250434","1","http://179","0"
"207396","","Lahokantie 1","62.230429230978","25.6550428889555","1","http://179","0"
"207397","","Lampitie 1","62.2242021504314","25.7869722332963","1","http://179","0"
"207398","","Löylyjoki 1","62.2632850186588","25.7357215710988","1","http://179","0"
"207399","","Nenäinmutka 1","62.2066565558583","25.7677553026939","1","http://179","0"
"207400","","Nenäinniemi","62.2052086936726","25.782967553459","1","http://179","0"
"207401","","Niinitie 1","62.265555035957","25.7302436384892","1","http://179","0"
"207402","","Ohjelmakaari 1","62.2295504577043","25.7462356285786","1","http://179","0"
"207403","","Orakkaantie 1","62.2324334485339","25.6594696821997","1","http://179","0"
"207404","","Patteritie 1","62.2311592764188","25.7659773967558","1","http://179","0"
"207405","","Pieles 1","62.2643434115457","25.7942278457328","1","http://179","0"
"207406","","Pupuhuhdan koulu 1","62.2660034899359","25.7914540326039","1","http://179","0"
"207407","","Pupuhuhta","62.2674542913672","25.7948138311141","1","http://179","0"
"207408","","Purokatu 2","62.2288966308515","25.7199383117913","1","http://179","0"
"207409","","Roninmäki 1","62.2171037799257","25.7072907561676","1","http://179","0"
"207410","","Ruutisarvi 1","62.2458760592299","25.6886751707549","1","http://179","0"
"207411","","Salmirannantie 1","62.2189804888955","25.7958274464948","1","http://179","0"
"207412","","Sammaltie","62.2809277971589","25.7734068767127","1","http://179","0"
"207413","","Ss-Vuorenlahti 1","62.1236219173069","25.7770487003898","2","http://179","0"
"207414","","Teivaalantie 1","62.215716621907","25.7103298120478","1","http://179","0"
"207416","","Tikan koulu 1","62.2205532154734","25.7598834142642","1","http://179","0"
"207417","","Tikantori 1","62.2205649700778","25.7667677380816","1","http://179","0"
"207418","","Tähtäin 1","62.2478098719373","25.6882569696668","1","http://179","0"
"207419","","Ulpukkatie 1","62.2784615326538","25.7713869815547","1","http://179","0"
"207420","","Vahverontie 1","62.2332203921518","25.6628656647738","1","http://179","0"
"207421","","Ylistönmäki 1","62.2270813019753","25.7458176525117","1","http://179","0"
"207422","","Yläpaula 1","62.2603288597888","25.7523623531088","1","http://179","0"
"207423","","Ss-Haikka 2","62.1283726341528","25.7798129603487","2","http://179","0"
"207424","","Ss-Muuratsalo","62.1178609510327","25.7543334206367","2","http://179","0"
"207425","","Aholaita 2","62.2500271705722","25.7772357412265","1","http://179","0"
"207426","","Keskusta 1","62.2408291494203","25.7479020680277","1","http://179","0"
"207427","","Keskusta 2","62.2410372338397","25.7483159726174","1","http://179","0"
"207428","","Keskusta 3","62.2412402845086","25.7487200374258","1","http://179","0"
"207429","","Keskusta 4","62.2414493783941","25.7491361420017","1","http://179","0"
"207430","","Marjapolku 1","62.2715272551195","25.8025119878148","1","http://179","0"
"207431","","Seppäläntie 2","62.2518857803035","25.773315882711","1","http://179","0"
"207432","","Syrjälä 1","62.2403181832538","25.7213590124524","1","http://179","0"
"207433","","Tilausajo 10","62.2443239075644","25.7431717643951","1","http://179","0"
"207434","","Aholaita 1","62.2507012946287","25.7754531529299","1","http://179","0"
"207435","","Halssilan koulu 1","62.2431622506754","25.7924284049914","1","http://179","0"
"207436","","Ilveskuja 1","62.2432475641635","25.7970384501845","1","http://179","0"
"207437","","Kaakkolampi","62.2695234133655","25.8222370711739","1","http://179","0"
"207438","","Kansanopisto 1","62.226427470554","25.7828268334325","1","http://179","0"
"207439","","Kivistö 1","62.2451760009147","25.7863159995109","1","http://179","0"
"207440","","Kukkumäentie 1","62.2276423438832","25.7073540369035","1","http://179","0"
"207441","","Näkövammaisten koulu 2","62.2279860851437","25.7066977041547","1","http://179","0"
"207442","","Ammattikorkeakoulu 1","62.2508644175428","25.7448838749181","1","http://179","0"
"207443","","Energia 1","62.2426280825254","25.7058753185206","1","http://179","0"
"207444","","Harjun oppilaitos 2","62.2489178614366","25.7402534542154","1","http://179","0"
"207445","","Jäähalli 1","62.2380661579156","25.7213131152702","1","http://179","0"
"207446","","Kauppatori 10","62.2450020051957","25.7466869487247","1","http://179","0"
"207447","","Kauppatori 8","62.2454772610314","25.7455611483828","1","http://179","0"
"207448","","Kauppatori 9","62.245134430585","25.7463732498027","1","http://179","0"
"207449","","Keljonkeskus 1","62.2158984157845","25.7184542058704","1","http://179","0"
"207450","","Keljonkeskus 2","62.2158780085596","25.718456223203","1","http://179","0"
"207451","","Keskussairaala 1","62.2308895412588","25.7108412274274","1","http://179","0"
"207452","","Keskussairaala 11","62.2306811502135","25.7108536452429","1","http://179","0"
"207453","","Keskussairaala 2","62.2305275267924","25.7104354377672","1","http://179","0"
"207454","","Keskusta 5","62.2411981313618","25.7486361691862","1","http://179","0"
"207455","","Keskusta 6","62.2409399637272","25.7481224847704","1","http://179","0"
"207456","","Keskusta 7","62.2406377371537","25.747521165335","1","http://179","0"
"207457","","Kirjasto 1","62.238664745643","25.743579021333","1","http://179","0"
"207458","","Kirjasto 2","62.2385595298106","25.7433687156039","1","http://179","0"
"207459","","Kivelänranta 1","62.2598776333852","25.7434818728666","1","http://179","0"
"207460","","Kunnantalo 1","62.2521742904528","25.7479455937938","1","http://179","0"
"207461","","Kyllö 1","62.2319167909579","25.7084017775656","1","http://179","0"
"207462","","Kyllö 2","62.2323300436053","25.7066736870953","1","http://179","0"
"207463","","Laajari 1","62.256665014225","25.6972440633218","1","http://179","0"
"207464","","Pitkäkatu 1","62.2395272343013","25.7325157297173","1","http://179","0"
"207465","","Pitkäkatu 2","62.2395653864618","25.7327615959063","1","http://179","0"
"207466","","Prisma 1","62.2577292850814","25.7780439181106","1","http://179","0"
"207467","","Prisma 2","62.2582170442998","25.7783678395112","1","http://179","0"
"207468","","Puistokoulu 2","62.2463559602947","25.7500966919238","1","http://179","0"
"207469","","Rautpohja 1","62.2366683655667","25.7186448782171","1","http://179","0"
"207470","","Rautpohja 2","62.2360881875367","25.7179529051695","1","http://179","0"
"207471","","Sepänkatu 2","62.248739127619","25.73804910546","1","http://179","0"
"207472","","Torpankuja 1","62.2525916316159","25.700415533691","1","http://179","0"
"207473","","Tourula 1","62.248129348739","25.7620082067204","1","http://179","0"
"207474","","Tourula 2","62.2489447077961","25.7634126397786","1","http://179","0"
"207475","","Tourunsilta 1","62.2463149716623","25.7589653169978","1","http://179","0"
"207476","","Tourunsilta 2","62.2462942063595","25.759251093083","1","http://179","0"
"207477","","Urhonkatu 1","62.2430375218969","25.7522969666015","1","http://179","0"
"207478","","Urhonkatu 2","62.2432113930744","25.7526435666935","1","http://179","0"
"207479","","Valimo 11","62.2334158881482","25.7184085801599","1","http://179","0"
"207480","","Valimo 2","62.2327643502753","25.7175048220645","1","http://179","0"
"207481","","Vanha hautausmaa 2","62.2496552766178","25.7496556963422","1","http://179","0"
"207482","","Yliopisto 1","62.2342750055432","25.7302327708397","1","http://179","0"
"207483","","Yliopisto 2","62.2340030413178","25.7273613163679","1","http://179","0"
"207484","","Aittorinne 1","62.2485207932456","25.7802135722217","1","http://179","0"
"207485","","Ammattikoulu 1","62.248135017934","25.7306000623781","1","http://179","0"
"207486","","Ammattikoulu 2","62.2464068370281","25.7288517133088","1","http://179","0"
"207487","","Auvilankuja 1","62.2505176359985","25.702046638586","1","http://179","0"
"207488","","Halisenmutka 1","62.2194887062903","25.7384053135572","1","http://179","0"
"207489","","Haperontie 1","62.2310018257884","25.6827047902737","1","http://179","0"
"207490","","Kahakatu 1","62.2394365414766","25.6843878844311","1","http://179","0"
"207491","","Kangasvuori 1","62.2608167091359","25.786104765834","1","http://179","0"
"207492","","Keljonkangas 1","62.1892799654558","25.713360043553","1","http://179","0"
"207493","","Keljonkankaan koulu 1","62.1957049741993","25.7175395254199","1","http://179","0"
"207494","","Keltinmutka 1","62.2332213346468","25.6806119301185","1","http://179","0"
"207495","","Keltinmäen koulu 1","62.2291516527785","25.6810904448599","1","http://179","0"
"207496","","Korpela 1","62.2316435214353","25.7684013858391","1","http://179","0"
"207497","","Kortesuo 2","62.2496699063103","25.7188813378706","1","http://179","0"
"207498","","Kultalakintie 1","62.2266335785126","25.6843097442463","1","http://179","0"
"207499","","Kuokkalan Kartano 1","62.2244518651199","25.805072004543","1","http://179","0"
"207500","","Kypärämäen koulu 1","62.2376034754565","25.691367488323","1","http://179","0"
"207501","","Köhniönjärvi 1","62.2404362708406","25.6779664832904","1","http://179","0"
"207502","","Lahjaharjuntie 1","62.257710912238","25.7467120448337","1","http://179","0"
"207503","","Lohikoski 1","62.2671763840555","25.7565015204096","1","http://179","0"
"207504","","Messukeskus 1","62.2386938478508","25.7606821647942","1","http://179","0"
"207505","","Messukeskus 2","62.2384781513187","25.7605741645976","1","http://179","0"
"207506","","Myllypolku 1","62.2206233825437","25.7027041088088","1","http://179","0"
"207507","","Nevakatu 1","62.2707308575292","25.798690521481","1","http://179","0"
"207508","","Nuottakatu 1","62.2696474249127","25.7604399953089","1","http://179","0"
"207509","","Oppilaitokset 2","62.2465584960177","25.7200755358272","1","http://179","0"
"207510","","Pohjanlahti 1","62.2183704397454","25.76877307219","1","http://179","0"
"207511","","Pohjanlampi 1","62.2250943848805","25.7738739727505","1","http://179","0"
"207512","","Pohjanlampi 2","62.224358967308","25.7733554515895","1","http://179","0"
"207513","","Pohjanpelto 1","62.2207625482198","25.770979216701","1","http://179","0"
"207514","","Pohjanpelto 2","62.221850993383","25.7716820919478","1","http://179","0"
"207515","","Puistokoulu 1","62.2466899649007","25.750050207485","1","http://179","0"
"207516","","Rajalammentie 1","62.2320617019654","25.6445354347576","1","http://179","0"
"207517","","Rihlaperä 1","62.2345318873305","25.6998779687338","1","http://179","0"
"207518","","Ristonmaa 1","62.2210010168031","25.7304591365297","1","http://179","0"
"207519","","Salokatu 1","62.2368954021875","25.6951893292608","1","http://179","0"
"207520","","Sorvi 1","62.1929607880402","25.7152722403749","1","http://179","0"
"207521","","Ss-Säynätsalo 1","62.1383583234882","25.7676796147586","2","http://179","0"
"207522","","Ss-Säynätsalo 2","62.1382001068878","25.7666889095422","2","http://179","0"
"207523","","Taitoniekantie","62.2481109885124","25.715091719282","1","http://179","0"
"207524","","Taulumäki 1","62.2554265553347","25.7497684703525","1","http://179","0"
"207525","","Tietoniekantie 1","62.2473093420592","25.704539288903","1","http://179","0"
"207526","","Tikantori 2","62.2206738991805","25.7660234742493","1","http://179","0"
"207527","","Vellamonkatu 1","62.2422367970886","25.7269178648193","1","http://179","0"
"207528","","Verkkokatu 1","62.2659914637772","25.7530231602407","1","http://179","0"
"207529","","Viitaniemi 1","62.2502218812627","25.7333022040149","1","http://179","0"
"207530","","Voionmaan koulu 2","62.2393184323728","25.7251753487871","1","http://179","0"
"207531","","Yliopistonkatu 2","62.2410350626582","25.7396123901803","1","http://179","0"
"207532","","Yliopistokylä 1","62.2466538438724","25.7111039672935","1","http://179","0"
"207533","","Ainola 2","62.228291931697","25.7582630948397","1","http://179","0"
"207534","","Aittorinne 2","62.2483022929698","25.7804579434754","1","http://179","0"
"207535","","Alasinkatu 1","62.2602061966008","25.780218439694","1","http://179","0"
"207536","","Alasinkatu 2","62.2601862109585","25.7805530838313","1","http://179","0"
"207537","","Auvilankuja 2","62.2512827894327","25.7014377783229","1","http://179","0"
"207538","","Cygnaeuksen koulu 1","62.2398632117031","25.7272717938111","1","http://179","0"
"207539","","Energia 2","62.2434060155657","25.7049859511951","1","http://179","0"
"207540","","Energia 22","62.2423640073635","25.7037554034808","1","http://179","0"
"207541","","Halisenmutka 2","62.2196678262043","25.7404872810528","1","http://179","0"
"207542","","Halssilan koulu 2","62.2431697807729","25.7930130939934","1","http://179","0"
"207543","","Halssilanrinne 2","62.2421642472018","25.8004826224455","1","http://179","0"
"207544","","Hankurainen 1","62.2430782316143","25.6936478428945","1","http://179","0"
"207545","","Hankurainen 2","62.2437026812586","25.6927857865147","1","http://179","0"
"207546","","Haperontie 2","62.2315070714449","25.6830610727185","1","http://179","0"
"207547","","Hauhontie 2","62.2093727631315","25.7669970756139","1","http://179","0"
"207548","","Haukkalan koulu 1","62.2715088284446","25.6960993992009","1","http://179","0"
"207549","","Haukkalan koulu 2","62.2720028607058","25.6963689297177","1","http://179","0"
"207550","","Heikinkatu 1","62.2452754327185","25.7597601569877","1","http://179","0"
"207551","","Heikinkatu 2","62.2454578102782","25.7593606894719","1","http://179","0"
"207552","","Hirvirinne 2","62.2064982584226","25.7784414163122","1","http://179","0"
"207553","","Huhtalammentie 1","62.2152812824269","25.6875218879429","1","http://179","0"
"207554","","Huhtalemmentie 2","62.2157859573492","25.6874279578976","1","http://179","0"
"207555","","Huhtasuo 2","62.2649774159126","25.7994132899186","1","http://179","0"
"207556","","Huhtasuon koulu 1","62.2711778668929","25.8092209027041","1","http://179","0"
"207557","","Huhtasuon koulu 2","62.2711649901518","25.8078606757288","1","http://179","0"
"207558","","Hämeenlahdentie 1","62.2203904266182","25.7844570649081","1","http://179","0"
"207559","","Hämeenlahdentie 2","62.2204403904195","25.7863784501743","1","http://179","0"
"207560","","Hämeenlahdentie 22","62.2202464181402","25.7833813462219","1","http://179","0"
"207561","","Isokatu 2","62.221968973164","25.7922576824351","1","http://179","0"
"207562","","Jenkkakuja 1","62.2271979984663","25.7597840923363","1","http://179","0"
"207563","","Kaakonsiipi 1","62.2705584403462","25.8160569916421","1","http://179","0"
"207564","","Kaakonsiipi 2","62.2701922000405","25.8173889087572","1","http://179","0"
"207565","","Kahakatu 2","62.2391859067909","25.6852565780482","1","http://179","0"
"207566","","Kaislikkotie 2","62.2768150223849","25.7700324354967","1","http://179","0"
"207567","","Kaivokatu 1","62.2442141652238","25.7130455308908","1","http://179","0"
"207568","","Kammi","62.2357381044985","25.8141282316168","1","http://179","0"
"207569","","Kangasvuori 2","62.2611379469087","25.7878128006213","1","http://179","0"
"207570","","Kankitie 1","62.2750154942679","25.7819659692879","1","http://179","0"
"207571","","Kankitie 2","62.275584014273","25.7828139020527","1","http://179","0"
"207572","","Kannaksenkatu 1","62.2263165191544","25.7178120140901","1","http://179","0"
"207573","","Kannaksenkatu 2","62.2263426549728","25.7178034064673","1","http://179","0"
"207574","","Kansanopisto 2","62.2264459605658","25.7822707638729","1","http://179","0"
"207575","","Karhunrinne 2","62.2436909871961","25.8141484615195","1","http://179","0"
"207576","","Kauhatie 1","62.2773563832464","25.7854307372097","1","http://179","0"
"207577","","Kauhatie 2","62.278157439796","25.7865778664998","1","http://179","0"
"207578","","Kauppatori 1","62.2450442668655","25.7480235056971","1","http://179","0"
"207579","","Kauppatori 11","62.245415320955","25.7457078999245","1","http://179","0"
"207580","","Kauppatori 12","62.245539844506","25.7454126599405","1","http://179","0"
"207581","","Kauppatori 2","62.243413423556","25.7443107364386","1","http://179","0"
"207582","","Keljonkangas 22","62.1875177498132","25.7125575398037","1","http://179","0"
"207583","","Keljonkatu 1","62.2245757147552","25.7195471972292","1","http://179","0"
"207584","","Keljonkatu 2","62.2252444602246","25.7193792333441","1","http://179","0"
"207585","","Keltinmutka 2","62.2331993250485","25.6807265756749","1","http://179","0"
"207586","","Keltinmäen koulu 2","62.2299140248098","25.6817595128973","1","http://179","0"
"207587","","Keltinsilta 2","62.2240436561479","25.6928468460242","1","http://179","0"
"207588","","Kemian laitos 2","62.2287504347965","25.7403397454503","1","http://179","0"
"207589","","Keski-Suomen talo","62.2473854958109","25.7417292110635","1","http://179","0"
"207590","","Killeri 1","62.2441773650743","25.6732111855283","1","http://179","0"
"207591","","Killeri 2","62.2447807716915","25.6724747892476","1","http://179","0"
"207592","","Killeri 22","62.2447184934816","25.6740017238194","1","http://179","0"
"207593","","Kilpisenkatu","62.2407416279437","25.7469598444961","1","http://179","0"
"207594","","Kirjasto 3","62.2385194758183","25.7421191856005","1","http://179","0"
"207595","","Kirjasto 5","62.2376965911954","25.7416576704609","1","http://179","0"
"207596","","Kirjasto 6","62.2375359715794","25.7413403242564","1","http://179","0"
"207597","","Kissankello 2","62.2141301735213","25.7561179914545","1","http://179","0"
"207598","","Kisällintie 1","62.2900607581586","25.8114408607024","1","http://179","0"
"207599","","Kisällintie 2","62.2904492429853","25.8112589003086","1","http://179","0"
"207600","","Kivelänranta 2","62.2606227016609","25.7415855833403","1","http://179","0"
"207601","","Kivenkuja 1","62.2238263339011","25.7139588327787","1","http://179","0"
"207602","","Kivenkuja 2","62.223725151822","25.7135382545393","1","http://179","0"
"207603","","Kivistö 2","62.245437730217","25.7858703772686","1","http://179","0"
"207604","","Koivukatu 2 (jätetään  ei käytössä)","62.2406828363457","25.6992210226119","1","http://179","0"
"207605","","Koivuranta 2","62.2411143805257","25.8046182590719","1","http://179","0"
"207606","","Kokkokuja 2","62.2055506899806","25.7547466515469","1","http://179","0"
"207607","","Kontiontie 2","62.2450139115072","25.807277298671","1","http://179","0"
"207608","","Korpela 2","62.2307100194794","25.7690202931557","1","http://179","0"
"207609","","Kotapuro 1","62.2343610141637","25.668659120968","1","http://179","0"
"207610","","Kotapuro 2","62.2344564703264","25.6692703313548","1","http://179","0"
"207611","","Kultalakintie 2","62.2272794903124","25.6830584543489","1","http://179","0"
"207612","","Kunnantalo 11","62.2518686119867","25.7494033929636","1","http://179","0"
"207613","","Kuokkalan Kartano 2","62.2254199880114","25.8051062118957","1","http://179","0"
"207615","","Kyllöläntie 1","62.2264820878282","25.7098071053802","1","http://179","0"
"207616","","Kyllöläntie 2","62.2265252746152","25.7098457440011","1","http://179","0"
"207617","","Kylmänoro 1","62.2280778171458","25.7516398312478","1","http://179","0"
"207618","","Kylmänoro 2 (jätetään  ei käytössä)","62.2282954951573","25.7507985963975","1","http://179","0"
"207619","","Kypärämäen koulu 2","62.2377522195018","25.6904438361647","1","http://179","0"
"207620","","Kypärätie 1 (jätetään ei käytössä)","62.2374022800445","25.6982214937612","1","http://179","0"
"207621","","Kypärätie 2 (jätetään  ei käytössä)","62.2374460614043","25.6982384827277","1","http://179","0"
"207622","","Könkkölä 2","62.2492189719017","25.6539195146627","1","http://179","0"
"207623","","Laajari 2","62.2574680154646","25.696527470426","1","http://179","0"
"207624","","Laajavuori 1","62.2599361092804","25.6963550196087","1","http://179","0"
"207625","","Laajavuori 2","62.2608832070969","25.6969742800247","1","http://179","0"
"207626","","Ukonniementie E","62.2706441316902","25.7723389207547","1","http://179","0"
"207627","","Lahjaharju 2","62.2703175870926","25.769238154554","1","http://179","0"
"207628","","Lahjaharjuntie 2","62.2586625495504","25.746334861739","1","http://179","0"
"207629","","Lahjaharjuntie 22","62.2583878196447","25.7473165453092","1","http://179","0"
"207630","","Lahti 2","62.2250335331288","25.7302210633833","1","http://179","0"
"207631","","Lahti 22","62.2259225015076","25.7317129987195","1","http://179","0"
"207632","","Lampitie 2","62.224288225072","25.786710264969","1","http://179","0"
"207633","","Lapiotie 1","62.2806901129974","25.7887393018668","1","http://179","0"
"207634","","Lapiotie 2","62.2807235508086","25.7887660187997","1","http://179","0"
"207635","","Lehdokintie 2","62.2089735878359","25.7533716187407","1","http://179","0"
"207636","","LohikoskiI 2","62.2674687176009","25.7579921172863","1","http://179","0"
"207637","","Lounaispuisto 2","62.2364490186542","25.7391404193686","1","http://179","0"
"207638","","Löylyjoki 2","62.2635652573198","25.7347854185513","1","http://179","0"
"207639","","Maakuntakeskus","62.2376300932504","25.7457474302744","1","http://179","0"
"207641","","Mannisentie 2","62.2700519317951","25.7220523514279","1","http://179","0"
"207642","","Marjapolku 2","62.2715128362458","25.8025972148971","1","http://179","0"
"207643","","Masonmutka 2","62.2134639809613","25.7700532266426","1","http://179","0"
"207644","","Mattilanniemi","62.2317361526872","25.7362332890758","1","http://179","0"
"207645","","Murskaamontie 1","62.287161700557","25.7992418038534","1","http://179","0"
"207646","","Murskaamontie 2","62.287295315745","25.7993970166997","1","http://179","0"
"207647","","Museo 2","62.2336505778684","25.7335729049181","1","http://179","0"
"207648","","Muuramentie 1","62.184852378065","25.7072675094786","1","http://179","0"
"207649","","Muuramentie 2","62.1848630226242","25.7073037608778","1","http://179","0"
"207650","","Myllypolku 2","62.2195181141631","25.7034734865918","1","http://179","0"
"207651","","Myllysuo 1","62.2182574693603","25.6942693968976","1","http://179","0"
"207652","","Myllysuo 2","62.2183783019521","25.6944081008999","1","http://179","0"
"207653","","Nenäinmutka 2","62.206328216952","25.7686407366291","1","http://179","0"
"207654","","Nevakatu 2","62.2713429912546","25.7998986058758","1","http://179","0"
"207656","","Niskakuja 1","62.2557004435428","25.7521246451156","1","http://179","0"
"207657","","Niskakuja 2","62.2559062065052","25.7533656120426","1","http://179","0"
"207658","","Nuottakatu 2","62.2701462043836","25.7606073385077","1","http://179","0"
"207659","","Ohjelmakaari 2","62.2295596925237","25.7460146222322","1","http://179","0"
"207660","","Orakkaantie 2","62.2323214408119","25.6591500179376","1","http://179","0"
"207661","","Pajatie 1","62.2308499516359","25.6998263117933","1","http://179","0"
"207662","","Pajatie 2","62.2303279088555","25.6983885818163","1","http://179","0"
"207663","","Palokunnankatu 2","62.2432704754055","25.7184399800482","1","http://179","0"
"207664","","Palokunta 2","62.2419005125398","25.7155879157308","1","http://179","0"
"207665","","Paloniemi 2","62.2638940583798","25.751478815237","1","http://179","0"
"207666","","Patteritie 2","62.2307890291224","25.7636542711597","1","http://179","0"
"207667","","Petäjävedentie 2","62.2287123090613","25.6952923822376","1","http://179","0"
"207668","","Pieles 2","62.2645792053206","25.7955034228194","1","http://179","0"
"207669","","Pirttimäki 1","62.2263069598754","25.7970417673487","1","http://179","0"
"207670","","Pirttimäki 2","62.226293619315","25.7982951005217","1","http://179","0"
"207671","","Pohjanlahti 2","62.2176942102769","25.7687325929769","1","http://179","0"
"207672","","Pohjanlahti 22","62.217757110641","25.7673357365042","1","http://179","0"
"207673","","Poratie 1","62.2838474770924","25.7925898402179","1","http://179","0"
"207674","","Poratie 2","62.2840565950439","25.7930408896145","1","http://179","0"
"207675","","Pupuhuhdan koulu 2","62.2661527082293","25.792284738594","1","http://179","0"
"207676","","Purokatu 1","62.2302374341455","25.7206947906553","1","http://179","0"
"207677","","Purokatu 11","62.2296747002699","25.7185597906008","1","http://179","0"
"207678","","Purokatu 22","62.2296073359961","25.718548261403","1","http://179","0"
"207679","","Raivio 1","62.2176190770462","25.783324260347","1","http://179","0"
"207680","","Raivio 2","62.2176527526917","25.783313939916","1","http://179","0"
"207681","","Rantakuja 1","62.223970583354","25.7079632842213","1","http://179","0"
"207682","","Rantakuja 2","62.2238698177245","25.7082902310808","1","http://179","0"
"207684","","Rihlaperä 2","62.2348124244874","25.6993433630493","1","http://179","0"
"207685","","Ristonmaa 2","62.22086065841","25.7307256029518","1","http://179","0"
"207686","","Roninmäki 2","62.2176841075547","25.7060155222659","1","http://179","0"
"207687","","Ruutisarvi 2","62.2458402010086","25.6887290070866","1","http://179","0"
